$GPRMC,003619.40,A,3547.2411202,N,13924.2954074,E,0.015,,120122,,,R,V*11
$GPGSA,A,3,15,12,24,23,10,,,,,,,,1.48,0.67,1.33,1*13
$GPGSA,A,3,67,66,77,76,,,,,,,,,1.48,0.67,1.33,2*11
$GPGSA,A,3,04,09,24,31,05,,,,,,,,1.48,0.67,1.33,3*1C
$GPGSA,A,3,19,13,22,09,06,16,36,20,,,,,1.48,0.67,1.33,4*12
$GPZDA,003619.40,12,01,2022,00,00*6F
$GPRMC,003619.50,A,3547.2411208,N,13924.2954079,E,0.006,,120122,,,R,V*15
$GPGSA,A,3,15,12,24,23,10,,,,,,,,1.48,0.67,1.33,1*13
$GPGSA,A,3,67,66,77,76,,,,,,,,,1.48,0.67,1.33,2*11
$GPGSA,A,3,04,09,24,31,05,,,,,,,,1.48,0.67,1.33,3*1C
$GPGSA,A,3,19,13,22,09,06,16,36,20,,,,,1.48,0.67,1.33,4*12
$GPZDA,003619.50,12,01,2022,00,00*6E
$GPRMC,003619.60,A,3547.2411215,N,13924.2954084,E,0.015,,120122,,,R,V*1A
$GPGSA,A,3,15,12,24,23,10,,,,,,,,1.48,0.67,1.33,1*13
$GPGSA,A,3,67,66,77,76,,,,,,,,,1.48,0.67,1.33,2*11
$GPGSA,A,3,04,09,24,31,05,,,,,,,,1.48,0.67,1.33,3*1C
$GPGSA,A,3,19,13,22,09,06,16,36,20,,,,,1.48,0.67,1.33,4*12
$GPZDA,003619.60,12,01,2022,00,00*6D
$GPRMC,003619.70,A,3547.2411210,N,13924.2954081,E,0.019,,120122,,,R,V*17
$GPGSA,A,3,15,12,24,23,10,,,,,,,,1.48,0.67,1.33,1*13
$GPGSA,A,3,67,66,77,76,,,,,,,,,1.48,0.67,1.33,2*11
$GPGSA,A,3,04,09,24,31,05,,,,,,,,1.48,0.67,1.33,3*1C
$GPGSA,A,3,19,13,22,09,06,16,36,20,,,,,1.48,0.67,1.33,4*12
$GPZDA,003619.70,12,01,2022,00,00*6C
$GPRMC,003619.80,A,3547.2411207,N,13924.2954075,E,0.002,,120122,,,R,V*1F
$GPGSA,A,3,15,12,24,23,10,,,,,,,,1.48,0.67,1.33,1*13
$GPGSA,A,3,67,66,77,76,,,,,,,,,1.48,0.67,1.33,2*11
$GPGSA,A,3,04,09,24,31,05,,,,,,,,1.48,0.67,1.33,3*1C
$GPGSA,A,3,19,13,22,09,06,16,36,20,,,,,1.48,0.67,1.33,4*12
$GPZDA,003619.80,12,01,2022,00,00*63
$GPRMC,003619.90,A,3547.2411219,N,13924.2954078,E,0.012,,120122,,,R,V*1D
$GPGSA,A,3,15,12,24,23,10,,,,,,,,1.48,0.67,1.33,1*13
$GPGSA,A,3,67,66,77,76,,,,,,,,,1.48,0.67,1.33,2*11
$GPGSA,A,3,04,09,24,31,05,,,,,,,,1.48,0.67,1.33,3*1C
$GPGSA,A,3,19,13,22,09,06,16,36,20,,,,,1.48,0.67,1.33,4*12
$GPZDA,003619.90,12,01,2022,00,00*62
$GPRMC,003620.00,A,3547.2411220,N,13924.2954085,E,0.021,,120122,,,R,V*16
$GPGSA,A,3,15,12,24,23,10,,,,,,,,1.48,0.67,1.33,1*13
$GPGSA,A,3,67,66,77,76,,,,,,,,,1.48,0.67,1.33,2*11
$GPGSA,A,3,04,09,24,31,05,,,,,,,,1.48,0.67,1.33,3*1C
$GPGSA,A,3,19,13,22,09,06,16,36,20,,,,,1.48,0.67,1.33,4*12
$GPZDA,003620.00,12,01,2022,00,00*61
$GPRMC,003620.10,A,3547.2411221,N,13924.2954086,E,0.018,,120122,,,R,V*1F
$GPGSA,A,3,15,12,24,23,10,,,,,,,,1.48,0.67,1.33,1*13
$GPGSA,A,3,67,66,77,76,,,,,,,,,1.48,0.67,1.33,2*11
$GPGSA,A,3,04,09,24,31,05,,,,,,,,1.48,0.67,1.33,3*1C
$GPGSA,A,3,19,13,22,09,06,16,36,20,,,,,1.48,0.67,1.33,4*12
$GPZDA,003620.10,12,01,2022,00,00*60
$GPRMC,003620.20,A,3547.2411221,N,13924.2954086,E,0.010,,120122,,,R,V*14
$GPGSA,A,3,15,12,24,23,10,,,,,,,,1.48,0.67,1.33,1*13
$GPGSA,A,3,67,66,77,76,,,,,,,,,1.48,0.67,1.33,2*11
$GPGSA,A,3,04,09,24,31,05,,,,,,,,1.48,0.67,1.33,3*1C
$GPGSA,A,3,19,13,22,09,06,16,36,20,,,,,1.48,0.67,1.33,4*12
$GPZDA,003620.20,12,01,2022,00,00*63
$GPRMC,003620.30,A,3547.2411216,N,13924.2954090,E,0.005,,120122,,,R,V*12
$GPGGA,003620.30,3547.2411216,N,13924.2954090,E,4,12,0.67,124.694,M,38.868,M,1.3,1006*7D
$GPGSA,A,3,15,12,24,23,10,,,,,,,,1.48,0.67,1.33,1*13
$GPGSA,A,3,67,66,77,76,,,,,,,,,1.48,0.67,1.33,2*11
$GPGSA,A,3,04,09,24,31,05,,,,,,,,1.48,0.67,1.33,3*1C
$GPGSA,A,3,19,13,22,09,06,16,36,20,,,,,1.48,0.67,1.33,4*12
$GPGSV,3,1,11,05,05,149,,10,39,313,47,12,39,152,42,13,14,087,39,1*68
$GPGSV,3,2,11,15,45,087,44,18,18,223,22,23,71,277,45,24,72,020,44,1*69
$GPGSV,3,3,11,25,17,184,,28,,,36,32,07,291,38,1*60
$GPGSV,3,1,10,05,05,149,,10,39,313,43,12,39,152,42,13,14,087,,6*60
$GPGSV,3,2,10,15,45,087,38,18,18,223,25,23,71,277,43,24,72,020,44,6*65
$GPGSV,3,3,10,25,17,184,17,32,07,291,36,6*61
$GLGSV,2,1,07,65,10,123,,66,60,080,50,67,46,336,50,68,01,314,35,1*7A
$GLGSV,2,2,07,75,00,029,,76,52,037,51,77,69,190,40,1*43
$GLGSV,2,1,07,65,10,123,,66,60,080,45,67,46,336,46,68,01,314,27,3*78
$GLGSV,2,2,07,75,00,029,30,76,52,037,46,77,69,190,37,3*44
$GAGSV,2,1,07,01,12,037,26,04,21,100,41,05,44,312,45,09,67,053,46,7*7E
$GAGSV,2,2,07,24,47,166,43,31,54,080,46,36,12,229,24,7*47
$GAGSV,2,1,07,01,12,037,,04,21,100,37,05,44,312,46,09,67,053,44,2*7F
$GAGSV,2,2,07,24,47,166,41,31,54,080,42,36,12,229,27,2*47
$GBGSV,2,1,08,06,46,288,44,09,35,278,42,13,47,247,43,16,51,295,45,1*74
$GBGSV,2,2,08,19,84,025,48,20,37,126,43,22,32,315,44,36,51,213,46,1*70
$GBGSV,2,1,08,06,46,288,41,09,35,278,39,13,47,247,41,16,51,295,44,3*7C
$GBGSV,2,2,08,19,84,025,,20,37,126,,22,32,315,,36,51,213,,3*7B
$GPZDA,003620.30,12,01,2022,00,00*62
$GPRMC,003620.40,A,3547.2411222,N,13924.2954089,E,0.009,,120122,,,R,V*16
$GPGSA,A,3,15,12,24,23,10,,,,,,,,1.48,0.67,1.33,1*13
$GPGSA,A,3,67,66,77,76,,,,,,,,,1.48,0.67,1.33,2*11
$GPGSA,A,3,04,09,24,31,05,,,,,,,,1.48,0.67,1.33,3*1C
$GPGSA,A,3,19,13,22,09,06,16,36,20,,,,,1.48,0.67,1.33,4*12
$GPZDA,003620.40,12,01,2022,00,00*65
$GPRMC,003620.50,A,3547.2411228,N,13924.2954094,E,0.008,,120122,,,R,V*10
$GPGSA,A,3,15,12,24,23,10,,,,,,,,1.48,0.67,1.33,1*13
$GPGSA,A,3,67,66,77,76,,,,,,,,,1.48,0.67,1.33,2*11
$GPGSA,A,3,04,09,24,31,05,,,,,,,,1.48,0.67,1.33,3*1C
$GPGSA,A,3,19,13,22,09,06,16,36,20,,,,,1.48,0.67,1.33,4*12
$GPZDA,003620.50,12,01,2022,00,00*64
$GPRMC,003620.60,A,3547.2411229,N,13924.2954094,E,0.019,,120122,,,R,V*12
$GPGSA,A,3,15,12,24,23,10,,,,,,,,1.48,0.67,1.33,1*13
$GPGSA,A,3,67,66,77,76,,,,,,,,,1.48,0.67,1.33,2*11
$GPGSA,A,3,04,09,24,31,05,,,,,,,,1.48,0.67,1.33,3*1C
$GPGSA,A,3,19,13,22,09,06,16,36,20,,,,,1.48,0.67,1.33,4*12
$GPZDA,003620.60,12,01,2022,00,00*67
$GPRMC,003620.70,A,3547.2411225,N,13924.2954093,E,0.010,,120122,,,R,V*11
$GPGSA,A,3,15,12,24,23,10,,,,,,,,1.48,0.67,1.33,1*13
$GPGSA,A,3,67,66,77,76,,,,,,,,,1.48,0.67,1.33,2*11
$GPGSA,A,3,04,09,24,31,05,,,,,,,,1.48,0.67,1.33,3*1C
$GPGSA,A,3,19,13,22,09,06,16,36,20,,,,,1.48,0.67,1.33,4*12
$GPZDA,003620.70,12,01,2022,00,00*66
$GPRMC,003620.80,A,3547.2411233,N,13924.2954095,E,0.004,,120122,,,R,V*1A
$GPGSA,A,3,15,12,24,23,10,,,,,,,,1.48,0.67,1.33,1*13
$GPGSA,A,3,67,66,77,76,,,,,,,,,1.48,0.67,1.33,2*11
$GPGSA,A,3,04,09,24,31,05,,,,,,,,1.48,0.67,1.33,3*1C
$GPGSA,A,3,19,13,22,09,06,16,36,20,,,,,1.48,0.67,1.33,4*12
$GPZDA,003620.80,12,01,2022,00,00*69
$GPRMC,003620.90,A,3547.2411232,N,13924.2954089,E,0.023,,120122,,,R,V*12
$GPGSA,A,3,15,12,24,23,10,,,,,,,,1.48,0.67,1.33,1*13
$GPGSA,A,3,67,66,77,76,,,,,,,,,1.48,0.67,1.33,2*11
$GPGSA,A,3,04,09,24,31,05,,,,,,,,1.48,0.67,1.33,3*1C
$GPGSA,A,3,19,13,22,09,06,16,36,20,,,,,1.48,0.67,1.33,4*12
$GPZDA,003620.90,12,01,2022,00,00*68
$GPRMC,003621.00,A,3547.2411228,N,13924.2954087,E,0.012,,120122,,,R,V*1D
$GPGSA,A,3,15,12,24,23,10,,,,,,,,1.48,0.67,1.33,1*13
$GPGSA,A,3,67,66,77,76,,,,,,,,,1.48,0.67,1.33,2*11
$GPGSA,A,3,04,09,24,31,05,,,,,,,,1.48,0.67,1.33,3*1C
$GPGSA,A,3,19,13,22,09,06,16,36,20,,,,,1.48,0.67,1.33,4*12
$GPZDA,003621.00,12,01,2022,00,00*60
$GPRMC,003621.10,A,3547.2411233,N,13924.2954094,E,0.003,,120122,,,R,V*14
$GPGSA,A,3,15,12,24,23,10,,,,,,,,1.48,0.67,1.33,1*13
$GPGSA,A,3,67,66,77,76,,,,,,,,,1.48,0.67,1.33,2*11
$GPGSA,A,3,04,09,24,31,05,,,,,,,,1.48,0.67,1.33,3*1C
$GPGSA,A,3,19,13,22,09,06,16,36,20,,,,,1.48,0.67,1.33,4*12
$GPZDA,003621.10,12,01,2022,00,00*61
$GPRMC,003621.20,A,3547.2411241,N,13924.2954099,E,0.011,,120122,,,R,V*1C
$GPGSA,A,3,15,12,24,23,10,,,,,,,,1.48,0.67,1.33,1*13
$GPGSA,A,3,67,66,77,76,,,,,,,,,1.48,0.67,1.33,2*11
$GPGSA,A,3,04,09,24,31,05,,,,,,,,1.48,0.67,1.33,3*1C
$GPGSA,A,3,19,13,22,09,06,16,36,20,,,,,1.48,0.67,1.33,4*12
$GPZDA,003621.20,12,01,2022,00,00*62
$GPRMC,003621.30,A,3547.2411241,N,13924.2954096,E,0.024,,120122,,,R,V*14
$GPGGA,003621.30,3547.2411241,N,13924.2954096,E,4,12,0.67,124.692,M,38.868,M,1.3,1006*7E
$GPGSA,A,3,15,12,24,23,10,,,,,,,,1.48,0.67,1.33,1*13
$GPGSA,A,3,67,66,77,76,,,,,,,,,1.48,0.67,1.33,2*11
$GPGSA,A,3,04,09,24,31,05,,,,,,,,1.48,0.67,1.33,3*1C
$GPGSA,A,3,19,13,22,09,06,16,36,20,,,,,1.48,0.67,1.33,4*12
$GPGSV,3,1,11,05,05,149,,10,39,313,47,12,39,152,42,13,14,087,39,1*68
$GPGSV,3,2,11,15,45,087,44,18,18,223,22,23,71,277,45,24,72,020,45,1*68
$GPGSV,3,3,11,25,17,184,,28,,,35,32,07,291,38,1*63
$GPGSV,3,1,10,05,05,149,,10,39,313,43,12,39,152,42,13,14,087,,6*60
$GPGSV,3,2,10,15,45,087,38,18,18,223,26,23,71,277,43,24,72,020,44,6*66
$GPGSV,3,3,10,25,17,184,17,32,07,291,36,6*61
$GLGSV,2,1,07,65,10,123,,66,60,080,50,67,46,336,50,68,01,314,35,1*7A
$GLGSV,2,2,07,75,00,029,,76,52,037,51,77,69,190,40,1*43
$GLGSV,2,1,07,65,10,123,,66,60,080,45,67,46,336,46,68,01,314,27,3*78
$GLGSV,2,2,07,75,00,029,30,76,52,037,46,77,69,190,37,3*44
$GAGSV,2,1,07,01,12,037,26,04,21,100,41,05,44,312,45,09,67,053,46,7*7E
$GAGSV,2,2,07,24,47,166,43,31,54,080,46,36,12,229,23,7*40
$GAGSV,2,1,07,01,12,037,,04,21,100,37,05,44,312,46,09,67,053,44,2*7F
$GAGSV,2,2,07,24,47,166,41,31,54,080,42,36,12,229,27,2*47
$GBGSV,2,1,08,06,46,288,44,09,35,278,42,13,47,247,43,16,51,295,45,1*74
$GBGSV,2,2,08,19,84,025,48,20,37,126,43,22,32,315,44,36,51,213,46,1*70
$GBGSV,2,1,08,06,46,288,41,09,35,278,39,13,47,247,41,16,51,295,44,3*7C
$GBGSV,2,2,08,19,84,025,,20,37,126,,22,32,315,,36,51,213,,3*7B
$GPZDA,003621.30,12,01,2022,00,00*63
$GPRMC,003621.40,A,3547.2411238,N,13924.2954103,E,0.011,,120122,,,R,V*16
$GPGSA,A,3,15,12,24,23,10,,,,,,,,1.48,0.67,1.33,1*13
$GPGSA,A,3,67,66,77,76,,,,,,,,,1.48,0.67,1.33,2*11
$GPGSA,A,3,04,09,24,31,05,,,,,,,,1.48,0.67,1.33,3*1C
$GPGSA,A,3,19,13,22,09,06,16,36,20,,,,,1.48,0.67,1.33,4*12
$GPZDA,003621.40,12,01,2022,00,00*64
$GPRMC,003621.50,A,3547.2411243,N,13924.2954103,E,0.013,,120122,,,R,V*19
$GPGSA,A,3,15,12,24,23,10,,,,,,,,1.48,0.67,1.33,1*13
$GPGSA,A,3,67,66,77,76,,,,,,,,,1.48,0.67,1.33,2*11
$GPGSA,A,3,04,09,24,31,05,,,,,,,,1.48,0.67,1.33,3*1C
$GPGSA,A,3,19,13,22,09,06,16,36,20,,,,,1.48,0.67,1.33,4*12
$GPZDA,003621.50,12,01,2022,00,00*65
$GPRMC,003621.60,A,3547.2411249,N,13924.2954105,E,0.011,,120122,,,R,V*14
$GPGSA,A,3,15,12,24,23,10,,,,,,,,1.48,0.67,1.33,1*13
$GPGSA,A,3,67,66,77,76,,,,,,,,,1.48,0.67,1.33,2*11
$GPGSA,A,3,04,09,24,31,05,,,,,,,,1.48,0.67,1.33,3*1C
$GPGSA,A,3,19,13,22,09,06,16,36,20,,,,,1.48,0.67,1.33,4*12
$GPZDA,003621.60,12,01,2022,00,00*66
$GPRMC,003621.70,A,3547.2411248,N,13924.2954110,E,0.018,,120122,,,R,V*19
$GPGSA,A,3,15,12,24,23,10,,,,,,,,1.48,0.67,1.33,1*13
$GPGSA,A,3,67,66,77,76,,,,,,,,,1.48,0.67,1.33,2*11
$GPGSA,A,3,04,09,24,31,05,,,,,,,,1.48,0.67,1.33,3*1C
$GPGSA,A,3,19,13,22,09,06,16,36,20,,,,,1.48,0.67,1.33,4*12
$GPZDA,003621.70,12,01,2022,00,00*67
$GPRMC,003621.80,A,3547.2411221,N,13924.2954091,E,0.009,,120122,,,R,V*11
$GPGSA,A,3,15,12,24,23,10,,,,,,,,1.48,0.67,1.33,1*13
$GPGSA,A,3,67,66,77,76,,,,,,,,,1.48,0.67,1.33,2*11
$GPGSA,A,3,04,09,24,31,05,,,,,,,,1.48,0.67,1.33,3*1C
$GPGSA,A,3,19,13,22,09,06,16,36,20,,,,,1.48,0.67,1.33,4*12
$GPZDA,003621.80,12,01,2022,00,00*68
$GPRMC,003621.90,A,3547.2411219,N,13924.2954088,E,0.055,,120122,,,R,V*1A
$GPGSA,A,3,15,12,24,23,10,,,,,,,,1.48,0.67,1.33,1*13
$GPGSA,A,3,67,66,77,76,,,,,,,,,1.48,0.67,1.33,2*11
$GPGSA,A,3,04,09,24,31,05,,,,,,,,1.48,0.67,1.33,3*1C
$GPGSA,A,3,19,13,22,09,06,16,36,20,,,,,1.48,0.67,1.33,4*12
$GPZDA,003621.90,12,01,2022,00,00*69
$GPRMC,003622.00,A,3547.2411215,N,13924.2954086,E,0.028,,120122,,,R,V*18
$GPGSA,A,3,15,12,24,23,10,,,,,,,,1.48,0.67,1.33,1*13
$GPGSA,A,3,67,66,77,76,,,,,,,,,1.48,0.67,1.33,2*11
$GPGSA,A,3,04,09,24,31,05,,,,,,,,1.48,0.67,1.33,3*1C
$GPGSA,A,3,19,13,22,09,06,16,36,20,,,,,1.48,0.67,1.33,4*12
$GPZDA,003622.00,12,01,2022,00,00*63
$GPRMC,003622.10,A,3547.2411221,N,13924.2954089,E,0.011,,120122,,,R,V*1B
$GPGSA,A,3,15,12,24,23,10,,,,,,,,1.48,0.67,1.33,1*13
$GPGSA,A,3,67,66,77,76,,,,,,,,,1.48,0.67,1.33,2*11
$GPGSA,A,3,04,09,24,31,05,,,,,,,,1.48,0.67,1.33,3*1C
$GPGSA,A,3,19,13,22,09,06,16,36,20,,,,,1.48,0.67,1.33,4*12
$GPZDA,003622.10,12,01,2022,00,00*62
$GPRMC,003622.20,A,3547.2411228,N,13924.2954094,E,0.008,,120122,,,R,V*15
$GPGSA,A,3,15,12,24,23,10,,,,,,,,1.48,0.67,1.33,1*13
$GPGSA,A,3,67,66,77,76,,,,,,,,,1.48,0.67,1.33,2*11
$GPGSA,A,3,04,09,24,31,05,,,,,,,,1.48,0.67,1.33,3*1C
$GPGSA,A,3,19,13,22,09,06,16,36,20,,,,,1.48,0.67,1.33,4*12
$GPZDA,003622.20,12,01,2022,00,00*61
$GPRMC,003622.30,A,3547.2411227,N,13924.2954093,E,0.020,,120122,,,R,V*16
$GPGGA,003622.30,3547.2411227,N,13924.2954093,E,4,12,0.67,124.691,M,38.868,M,1.3,1006*7B
$GPGSA,A,3,15,12,24,23,10,,,,,,,,1.48,0.67,1.33,1*13
$GPGSA,A,3,67,66,77,76,,,,,,,,,1.48,0.67,1.33,2*11
$GPGSA,A,3,04,09,24,31,05,,,,,,,,1.48,0.67,1.33,3*1C
$GPGSA,A,3,19,13,22,09,06,16,36,20,,,,,1.48,0.67,1.33,4*12
$GPGSV,3,1,11,05,05,149,,10,39,313,47,12,39,152,42,13,14,087,39,1*68
$GPGSV,3,2,11,15,45,087,44,18,18,223,23,23,71,277,45,24,72,020,45,1*69
$GPGSV,3,3,11,25,17,184,,28,,,35,32,07,291,38,1*63
$GPGSV,3,1,10,05,05,149,,10,39,313,43,12,39,152,42,13,14,087,,6*60
$GPGSV,3,2,10,15,45,087,38,18,18,223,25,23,71,277,43,24,72,020,44,6*65
$GPGSV,3,3,10,25,17,184,17,32,07,291,36,6*61
$GLGSV,2,1,07,65,10,123,,66,60,080,50,67,46,336,50,68,01,314,35,1*7A
$GLGSV,2,2,07,75,00,029,20,76,52,037,51,77,69,190,40,1*41
$GLGSV,2,1,07,65,10,123,,66,60,080,45,67,46,336,46,68,01,314,27,3*78
$GLGSV,2,2,07,75,00,029,30,76,52,037,46,77,69,190,37,3*44
$GAGSV,2,1,07,01,12,037,26,04,21,100,41,05,44,312,45,09,67,053,46,7*7E
$GAGSV,2,2,07,24,47,166,43,31,54,079,46,36,12,229,23,7*46
$GAGSV,2,1,07,01,12,037,,04,21,100,37,05,44,312,46,09,67,053,44,2*7F
$GAGSV,2,2,07,24,47,166,41,31,54,079,42,36,12,229,27,2*41
$GBGSV,2,1,08,06,46,288,44,09,35,278,42,13,47,247,43,16,51,295,45,1*74
$GBGSV,2,2,08,19,84,025,48,20,37,126,43,22,32,315,44,36,51,213,46,1*70
$GBGSV,2,1,08,06,46,288,41,09,35,278,39,13,47,247,41,16,51,295,44,3*7C
$GBGSV,2,2,08,19,84,025,,20,37,126,,22,32,315,,36,51,213,,3*7B
$GPZDA,003622.30,12,01,2022,00,00*60
$GPRMC,003622.40,A,3547.2411227,N,13924.2954090,E,0.005,,120122,,,R,V*15
$GPGSA,A,3,15,12,24,23,10,,,,,,,,1.48,0.67,1.33,1*13
$GPGSA,A,3,67,66,77,76,,,,,,,,,1.48,0.67,1.33,2*11
$GPGSA,A,3,04,09,24,31,05,,,,,,,,1.48,0.67,1.33,3*1C
$GPGSA,A,3,19,13,22,09,06,16,36,20,,,,,1.48,0.67,1.33,4*12
$GPZDA,003622.40,12,01,2022,00,00*67
$GPRMC,003622.50,A,3547.2411228,N,13924.2954098,E,0.006,,120122,,,R,V*10
$GPGSA,A,3,15,12,24,23,10,,,,,,,,1.48,0.67,1.33,1*13
$GPGSA,A,3,67,66,77,76,,,,,,,,,1.48,0.67,1.33,2*11
$GPGSA,A,3,04,09,24,31,05,,,,,,,,1.48,0.67,1.33,3*1C
$GPGSA,A,3,19,13,22,09,06,16,36,20,,,,,1.48,0.67,1.33,4*12
$GPZDA,003622.50,12,01,2022,00,00*66
$GPRMC,003622.60,A,3547.2411231,N,13924.2954090,E,0.011,,120122,,,R,V*15
$GPGSA,A,3,15,12,24,23,10,,,,,,,,1.48,0.67,1.33,1*13
$GPGSA,A,3,67,66,77,76,,,,,,,,,1.48,0.67,1.33,2*11
$GPGSA,A,3,04,09,24,31,05,,,,,,,,1.48,0.67,1.33,3*1C
$GPGSA,A,3,19,13,22,09,06,16,36,20,,,,,1.48,0.67,1.33,4*12
$GPZDA,003622.60,12,01,2022,00,00*65
$GPRMC,003622.70,A,3547.2411236,N,13924.2954098,E,0.011,,120122,,,R,V*1B
$GPGSA,A,3,15,12,24,23,10,,,,,,,,1.48,0.67,1.33,1*13
$GPGSA,A,3,67,66,77,76,,,,,,,,,1.48,0.67,1.33,2*11
$GPGSA,A,3,04,09,24,31,05,,,,,,,,1.48,0.67,1.33,3*1C
$GPGSA,A,3,19,13,22,09,06,16,36,20,,,,,1.48,0.67,1.33,4*12
$GPZDA,003622.70,12,01,2022,00,00*64
$GPRMC,003622.80,A,3547.2411218,N,13924.2954082,E,0.019,,120122,,,R,V*1B
$GPGSA,A,3,15,12,24,23,10,,,,,,,,1.48,0.67,1.33,1*13
$GPGSA,A,3,67,66,77,76,,,,,,,,,1.48,0.67,1.33,2*11
$GPGSA,A,3,04,09,24,31,05,,,,,,,,1.48,0.67,1.33,3*1C
$GPGSA,A,3,19,13,22,09,06,16,36,20,,,,,1.48,0.67,1.33,4*12
$GPZDA,003622.80,12,01,2022,00,00*6B
$GPRMC,003622.90,A,3547.2411213,N,13924.2954073,E,0.041,,120122,,,R,V*12
$GPGSA,A,3,15,12,24,23,10,,,,,,,,1.48,0.67,1.33,1*13
$GPGSA,A,3,67,66,77,76,,,,,,,,,1.48,0.67,1.33,2*11
$GPGSA,A,3,04,09,24,31,05,,,,,,,,1.48,0.67,1.33,3*1C
$GPGSA,A,3,19,13,22,09,06,16,36,20,,,,,1.48,0.67,1.33,4*12
$GPZDA,003622.90,12,01,2022,00,00*6A
$GPRMC,003623.00,A,3547.2411210,N,13924.2954073,E,0.030,,120122,,,R,V*1F
$GPGSA,A,3,15,12,24,23,10,,,,,,,,1.48,0.67,1.33,1*13
$GPGSA,A,3,67,66,77,76,,,,,,,,,1.48,0.67,1.33,2*11
$GPGSA,A,3,04,09,24,31,05,,,,,,,,1.48,0.67,1.33,3*1C
$GPGSA,A,3,19,13,22,09,06,16,36,20,,,,,1.48,0.67,1.33,4*12
$GPZDA,003623.00,12,01,2022,00,00*62
$GPRMC,003623.10,A,3547.2411217,N,13924.2954074,E,0.009,,120122,,,R,V*14
$GPGSA,A,3,15,12,24,23,10,,,,,,,,1.48,0.67,1.33,1*13
$GPGSA,A,3,67,66,77,76,,,,,,,,,1.48,0.67,1.33,2*11
$GPGSA,A,3,04,09,24,31,05,,,,,,,,1.48,0.67,1.33,3*1C
$GPGSA,A,3,19,13,22,09,06,16,36,20,,,,,1.48,0.67,1.33,4*12
$GPZDA,003623.10,12,01,2022,00,00*63
$GPRMC,003623.20,A,3547.2411211,N,13924.2954070,E,0.012,,120122,,,R,V*1F
$GPGSA,A,3,15,12,24,23,10,,,,,,,,1.48,0.67,1.33,1*13
$GPGSA,A,3,67,66,77,76,,,,,,,,,1.48,0.67,1.33,2*11
$GPGSA,A,3,04,09,24,31,05,,,,,,,,1.48,0.67,1.33,3*1C
$GPGSA,A,3,19,13,22,09,06,16,36,20,,,,,1.48,0.67,1.33,4*12
$GPZDA,003623.20,12,01,2022,00,00*60
$GPRMC,003623.30,A,3547.2411212,N,13924.2954074,E,0.010,,120122,,,R,V*1B
$GPGGA,003623.30,3547.2411212,N,13924.2954074,E,4,12,0.67,124.690,M,38.868,M,1.3,1006*74
$GPGSA,A,3,15,12,24,23,10,,,,,,,,1.48,0.67,1.33,1*13
$GPGSA,A,3,67,66,77,76,,,,,,,,,1.48,0.67,1.33,2*11
$GPGSA,A,3,04,09,24,31,05,,,,,,,,1.48,0.67,1.33,3*1C
$GPGSA,A,3,19,13,22,09,06,16,36,20,,,,,1.48,0.67,1.33,4*12
$GPGSV,3,1,11,05,05,149,,10,39,313,47,12,39,152,42,13,14,087,39,1*68
$GPGSV,3,2,11,15,45,087,44,18,18,223,24,23,71,277,45,24,72,020,44,1*6F
$GPGSV,3,3,11,25,17,184,,28,,,35,32,07,291,38,1*63
$GPGSV,3,1,10,05,05,149,,10,39,313,43,12,39,152,42,13,14,087,,6*60
$GPGSV,3,2,10,15,45,087,38,18,18,223,25,23,71,277,43,24,72,020,44,6*65
$GPGSV,3,3,10,25,17,184,17,32,07,291,36,6*61
$GLGSV,2,1,07,65,10,123,,66,60,080,50,67,46,336,50,68,01,314,35,1*7A
$GLGSV,2,2,07,75,00,029,19,76,52,037,51,77,70,190,40,1*43
$GLGSV,2,1,07,65,10,123,,66,60,080,45,67,46,336,46,68,01,314,27,3*78
$GLGSV,2,2,07,75,00,029,30,76,52,037,46,77,70,190,37,3*4C
$GAGSV,2,1,07,01,12,037,27,04,21,100,41,05,44,312,45,09,67,053,46,7*7F
$GAGSV,2,2,07,24,47,166,43,31,54,079,46,36,12,229,23,7*46
$GAGSV,2,1,07,01,12,037,,04,21,100,37,05,44,312,46,09,67,053,44,2*7F
$GAGSV,2,2,07,24,47,166,41,31,54,079,42,36,12,229,27,2*41
$GBGSV,2,1,08,06,46,288,44,09,35,278,42,13,47,247,43,16,51,295,45,1*74
$GBGSV,2,2,08,19,84,025,48,20,37,126,43,22,32,315,44,36,51,213,46,1*70
$GBGSV,2,1,08,06,46,288,41,09,35,278,39,13,47,247,41,16,51,295,44,3*7C
$GBGSV,2,2,08,19,84,025,,20,37,126,,22,32,315,,36,51,213,,3*7B
$GPZDA,003623.30,12,01,2022,00,00*61
$GPRMC,003623.40,A,3547.2411214,N,13924.2954077,E,0.006,,120122,,,R,V*1E
$GPGSA,A,3,15,12,24,23,10,,,,,,,,1.48,0.67,1.33,1*13
$GPGSA,A,3,67,66,77,76,,,,,,,,,1.48,0.67,1.33,2*11
$GPGSA,A,3,04,09,24,31,05,,,,,,,,1.48,0.67,1.33,3*1C
$GPGSA,A,3,19,13,22,09,06,16,36,20,,,,,1.48,0.67,1.33,4*12
$GPZDA,003623.40,12,01,2022,00,00*66
$GPRMC,003623.50,A,3547.2411211,N,13924.2954079,E,0.010,,120122,,,R,V*13
$GPGSA,A,3,15,12,24,23,10,,,,,,,,1.48,0.67,1.33,1*13
$GPGSA,A,3,67,66,77,76,,,,,,,,,1.48,0.67,1.33,2*11
$GPGSA,A,3,04,09,24,31,05,,,,,,,,1.48,0.67,1.33,3*1C
$GPGSA,A,3,19,13,22,09,06,16,36,20,,,,,1.48,0.67,1.33,4*12
$GPZDA,003623.50,12,01,2022,00,00*67
$GPRMC,003623.60,A,3547.2411215,N,13924.2954077,E,0.006,,120122,,,R,V*1D
$GPGSA,A,3,15,12,24,23,10,,,,,,,,1.48,0.67,1.33,1*13
$GPGSA,A,3,67,66,77,76,,,,,,,,,1.48,0.67,1.33,2*11
$GPGSA,A,3,04,09,24,31,05,,,,,,,,1.48,0.67,1.33,3*1C
$GPGSA,A,3,19,13,22,09,06,16,36,20,,,,,1.48,0.67,1.33,4*12
$GPZDA,003623.60,12,01,2022,00,00*64
$GPRMC,003623.70,A,3547.2411216,N,13924.2954078,E,0.012,,120122,,,R,V*15
$GPGSA,A,3,15,12,24,23,10,,,,,,,,1.48,0.67,1.33,1*13
$GPGSA,A,3,67,66,77,76,,,,,,,,,1.48,0.67,1.33,2*11
$GPGSA,A,3,04,09,24,31,05,,,,,,,,1.48,0.67,1.33,3*1C
$GPGSA,A,3,19,13,22,09,06,16,36,20,,,,,1.48,0.67,1.33,4*12
$GPZDA,003623.70,12,01,2022,00,00*65
$GPRMC,003623.80,A,3547.2411206,N,13924.2954063,E,0.002,,120122,,,R,V*10
$GPGSA,A,3,15,12,24,23,10,,,,,,,,1.48,0.67,1.33,1*13
$GPGSA,A,3,67,66,77,76,,,,,,,,,1.48,0.67,1.33,2*11
$GPGSA,A,3,04,09,24,31,05,,,,,,,,1.48,0.67,1.33,3*1C
$GPGSA,A,3,19,13,22,09,06,16,36,20,,,,,1.48,0.67,1.33,4*12
$GPZDA,003623.80,12,01,2022,00,00*6A
$GPRMC,003623.90,A,3547.2411204,N,13924.2954058,E,0.034,,120122,,,R,V*1E
$GPGSA,A,3,15,12,24,23,10,,,,,,,,1.48,0.67,1.33,1*13
$GPGSA,A,3,67,66,77,76,,,,,,,,,1.48,0.67,1.33,2*11
$GPGSA,A,3,04,09,24,31,05,,,,,,,,1.48,0.67,1.33,3*1C
$GPGSA,A,3,19,13,22,09,06,16,36,20,,,,,1.48,0.67,1.33,4*12
$GPZDA,003623.90,12,01,2022,00,00*6B
$GPRMC,003624.00,A,3547.2411210,N,13924.2954065,E,0.014,,120122,,,R,V*19
$GPGSA,A,3,15,12,24,23,10,,,,,,,,1.48,0.67,1.33,1*13
$GPGSA,A,3,67,66,77,76,,,,,,,,,1.48,0.67,1.33,2*11
$GPGSA,A,3,04,09,24,31,05,,,,,,,,1.48,0.67,1.33,3*1C
$GPGSA,A,3,19,13,22,09,06,16,36,20,,,,,1.48,0.67,1.33,4*12
$GPZDA,003624.00,12,01,2022,00,00*65
$GPRMC,003624.10,A,3547.2411208,N,13924.2954072,E,0.013,,120122,,,R,V*10
$GPGSA,A,3,15,12,24,23,10,,,,,,,,1.48,0.67,1.33,1*13
$GPGSA,A,3,67,66,77,76,,,,,,,,,1.48,0.67,1.33,2*11
$GPGSA,A,3,04,09,24,31,05,,,,,,,,1.48,0.67,1.33,3*1C
$GPGSA,A,3,19,13,22,09,06,16,36,20,,,,,1.48,0.67,1.33,4*12
$GPZDA,003624.10,12,01,2022,00,00*64
$GPRMC,003624.20,A,3547.2411208,N,13924.2954068,E,0.007,,120122,,,R,V*1D
$GPGSA,A,3,15,12,24,23,10,,,,,,,,1.48,0.67,1.33,1*13
$GPGSA,A,3,67,66,77,76,,,,,,,,,1.48,0.67,1.33,2*11
$GPGSA,A,3,04,09,24,31,05,,,,,,,,1.48,0.67,1.33,3*1C
$GPGSA,A,3,19,13,22,09,06,16,36,20,,,,,1.48,0.67,1.33,4*12
$GPZDA,003624.20,12,01,2022,00,00*67
$GPRMC,003624.30,A,3547.2411206,N,13924.2954071,E,0.002,,120122,,,R,V*1F
$GPGGA,003624.30,3547.2411206,N,13924.2954071,E,4,12,0.67,124.694,M,38.868,M,1.3,1006*77
$GPGSA,A,3,15,12,24,23,10,,,,,,,,1.48,0.67,1.33,1*13
$GPGSA,A,3,67,66,77,76,,,,,,,,,1.48,0.67,1.33,2*11
$GPGSA,A,3,04,09,24,31,05,,,,,,,,1.48,0.67,1.33,3*1C
$GPGSA,A,3,19,13,22,09,06,16,36,20,,,,,1.48,0.67,1.33,4*12
$GPGSV,3,1,11,05,05,149,,10,39,313,47,12,39,152,42,13,14,087,39,1*68
$GPGSV,3,2,11,15,45,087,44,18,18,223,25,23,71,277,45,24,72,020,44,1*6E
$GPGSV,3,3,11,25,17,184,,28,,,35,32,07,291,38,1*63
$GPGSV,3,1,10,05,05,149,,10,39,313,43,12,39,152,43,13,14,087,,6*61
$GPGSV,3,2,10,15,45,087,38,18,18,223,26,23,71,277,43,24,72,020,44,6*66
$GPGSV,3,3,10,25,17,184,17,32,07,291,36,6*61
$GLGSV,2,1,07,65,10,123,,66,60,080,50,67,46,336,50,68,01,314,36,1*79
$GLGSV,2,2,07,75,00,029,19,76,52,037,51,77,70,190,40,1*43
$GLGSV,2,1,07,65,10,123,,66,60,080,45,67,46,336,46,68,01,314,26,3*79
$GLGSV,2,2,07,75,00,029,30,76,52,037,46,77,70,190,37,3*4C
$GAGSV,2,1,07,01,12,037,27,04,21,100,41,05,44,312,45,09,67,053,46,7*7F
$GAGSV,2,2,07,24,47,166,43,31,54,079,46,36,12,229,23,7*46
$GAGSV,2,1,07,01,12,037,,04,21,100,37,05,44,312,46,09,67,053,44,2*7F
$GAGSV,2,2,07,24,47,166,41,31,54,079,42,36,12,229,26,2*40
$GBGSV,2,1,08,06,46,288,44,09,35,278,42,13,47,247,43,16,51,295,45,1*74
$GBGSV,2,2,08,19,84,025,48,20,37,126,43,22,32,315,44,36,51,213,46,1*70
$GBGSV,2,1,08,06,46,288,41,09,35,278,39,13,47,247,41,16,51,295,44,3*7C
$GBGSV,2,2,08,19,84,025,,20,37,126,,22,32,315,,36,51,213,,3*7B
$GPZDA,003624.30,12,01,2022,00,00*66
$GPRMC,003624.40,A,3547.2411204,N,13924.2954064,E,0.004,,120122,,,R,V*18
$GPGSA,A,3,15,12,24,23,10,,,,,,,,1.48,0.67,1.33,1*13
$GPGSA,A,3,67,66,77,76,,,,,,,,,1.48,0.67,1.33,2*11
$GPGSA,A,3,04,09,24,31,05,,,,,,,,1.48,0.67,1.33,3*1C
$GPGSA,A,3,19,13,22,09,06,16,36,20,,,,,1.48,0.67,1.33,4*12
$GPZDA,003624.40,12,01,2022,00,00*61
$GPRMC,003624.50,A,3547.2411208,N,13924.2954066,E,0.012,,120122,,,R,V*10
$GPGSA,A,3,15,12,24,23,10,,,,,,,,1.48,0.67,1.33,1*13
$GPGSA,A,3,67,66,77,76,,,,,,,,,1.48,0.67,1.33,2*11
$GPGSA,A,3,04,09,24,31,05,,,,,,,,1.48,0.67,1.33,3*1C
$GPGSA,A,3,19,13,22,09,06,16,36,20,,,,,1.48,0.67,1.33,4*12
$GPZDA,003624.50,12,01,2022,00,00*60
$GPRMC,003624.60,A,3547.2411198,N,13924.2954060,E,0.005,,120122,,,R,V*19
$GPGSA,A,3,15,12,24,23,10,,,,,,,,1.48,0.67,1.33,1*13
$GPGSA,A,3,67,66,77,76,,,,,,,,,1.48,0.67,1.33,2*11
$GPGSA,A,3,04,09,24,31,05,,,,,,,,1.48,0.67,1.33,3*1C
$GPGSA,A,3,19,13,22,09,06,16,36,20,,,,,1.48,0.67,1.33,4*12
$GPZDA,003624.60,12,01,2022,00,00*63
$GPRMC,003624.70,A,3547.2411201,N,13924.2954062,E,0.017,,120122,,,R,V*1A
$GPGSA,A,3,15,12,24,23,10,,,,,,,,1.48,0.67,1.33,1*13
$GPGSA,A,3,67,66,77,76,,,,,,,,,1.48,0.67,1.33,2*11
$GPGSA,A,3,04,09,24,31,05,,,,,,,,1.48,0.67,1.33,3*1C
$GPGSA,A,3,19,13,22,09,06,16,36,20,,,,,1.48,0.67,1.33,4*12
$GPZDA,003624.70,12,01,2022,00,00*62
$GPRMC,003624.80,A,3547.2411200,N,13924.2954058,E,0.001,,120122,,,R,V*1A
$GPGSA,A,3,15,12,24,23,10,,,,,,,,1.48,0.67,1.33,1*13
$GPGSA,A,3,67,66,77,76,,,,,,,,,1.48,0.67,1.33,2*11
$GPGSA,A,3,04,09,24,31,05,,,,,,,,1.48,0.67,1.33,3*1C
$GPGSA,A,3,19,13,22,09,06,16,36,20,,,,,1.48,0.67,1.33,4*12
$GPZDA,003624.80,12,01,2022,00,00*6D
$GPRMC,003624.90,A,3547.2411196,N,13924.2954065,E,0.009,,120122,,,R,V*11
$GPGSA,A,3,15,12,24,23,10,,,,,,,,1.48,0.67,1.33,1*13
$GPGSA,A,3,67,66,77,76,,,,,,,,,1.48,0.67,1.33,2*11
$GPGSA,A,3,04,09,24,31,05,,,,,,,,1.48,0.67,1.33,3*1C
$GPGSA,A,3,19,13,22,09,06,16,36,20,,,,,1.48,0.67,1.33,4*12
$GPZDA,003624.90,12,01,2022,00,00*6C
$GPRMC,003625.00,A,3547.2411196,N,13924.2954063,E,0.009,,120122,,,R,V*1F
$GPGSA,A,3,15,12,24,23,10,,,,,,,,1.48,0.67,1.33,1*13
$GPGSA,A,3,67,66,77,76,,,,,,,,,1.48,0.67,1.33,2*11
$GPGSA,A,3,04,09,24,31,05,,,,,,,,1.48,0.67,1.33,3*1C
$GPGSA,A,3,19,13,22,09,06,16,36,20,,,,,1.48,0.67,1.33,4*12
$GPZDA,003625.00,12,01,2022,00,00*64
$GPRMC,003625.10,A,3547.2411190,N,13924.2954063,E,0.004,,120122,,,R,V*15
$GPGSA,A,3,15,12,24,23,10,,,,,,,,1.48,0.67,1.33,1*13
$GPGSA,A,3,67,66,77,76,,,,,,,,,1.48,0.67,1.33,2*11
$GPGSA,A,3,04,09,24,31,05,,,,,,,,1.48,0.67,1.33,3*1C
$GPGSA,A,3,19,13,22,09,06,16,36,20,,,,,1.48,0.67,1.33,4*12
$GPZDA,003625.10,12,01,2022,00,00*65
$GPRMC,003625.20,A,3547.2411193,N,13924.2954064,E,0.012,,120122,,,R,V*15
$GPGSA,A,3,15,12,24,23,10,,,,,,,,1.48,0.67,1.33,1*13
$GPGSA,A,3,67,66,77,76,,,,,,,,,1.48,0.67,1.33,2*11
$GPGSA,A,3,04,09,24,31,05,,,,,,,,1.48,0.67,1.33,3*1C
$GPGSA,A,3,19,13,22,09,06,16,36,20,,,,,1.48,0.67,1.33,4*12
$GPZDA,003625.20,12,01,2022,00,00*66
$GPRMC,003625.30,A,3547.2411182,N,13924.2954062,E,0.004,,120122,,,R,V*15
$GPGGA,003625.30,3547.2411182,N,13924.2954062,E,4,12,0.67,124.697,M,38.868,M,1.3,1006*78
$GPGSA,A,3,15,12,24,23,10,,,,,,,,1.48,0.67,1.33,1*13
$GPGSA,A,3,67,66,77,76,,,,,,,,,1.48,0.67,1.33,2*11
$GPGSA,A,3,04,09,24,31,05,,,,,,,,1.48,0.67,1.33,3*1C
$GPGSA,A,3,19,13,22,09,06,16,36,20,,,,,1.48,0.67,1.33,4*12
$GPGSV,3,1,11,05,05,149,,10,39,313,47,12,39,152,42,13,14,087,39,1*68
$GPGSV,3,2,11,15,45,087,44,18,18,223,25,23,71,277,45,24,72,020,44,1*6E
$GPGSV,3,3,11,25,17,184,,28,,,35,32,07,291,38,1*63
$GPGSV,3,1,10,05,05,149,,10,39,313,43,12,39,152,42,13,14,087,,6*60
$GPGSV,3,2,10,15,45,087,38,18,18,223,26,23,71,277,43,24,72,020,44,6*66
$GPGSV,3,3,10,25,17,184,18,32,07,291,36,6*6E
$GLGSV,2,1,07,65,10,123,,66,60,080,50,67,46,336,50,68,01,314,36,1*79
$GLGSV,2,2,07,75,00,029,19,76,52,037,51,77,70,190,40,1*43
$GLGSV,2,1,07,65,10,123,,66,60,080,45,67,46,336,46,68,01,314,26,3*79
$GLGSV,2,2,07,75,00,029,29,76,52,037,46,77,70,190,37,3*44
$GAGSV,2,1,07,01,12,037,28,04,21,100,41,05,44,312,45,09,67,053,46,7*70
$GAGSV,2,2,07,24,47,166,43,31,54,079,46,36,12,229,23,7*46
$GAGSV,2,1,07,01,12,037,,04,21,100,37,05,44,312,46,09,67,053,44,2*7F
$GAGSV,2,2,07,24,47,166,41,31,54,079,42,36,12,229,26,2*40
$GBGSV,2,1,08,06,46,288,44,09,35,278,42,13,47,247,43,16,51,295,45,1*74
$GBGSV,2,2,08,19,84,025,48,20,37,126,43,22,32,315,44,36,51,213,46,1*70
$GBGSV,2,1,08,06,46,288,41,09,35,278,39,13,47,247,41,16,51,295,44,3*7C
$GBGSV,2,2,08,19,84,025,,20,37,126,,22,32,315,,36,51,213,,3*7B
$GPZDA,003625.30,12,01,2022,00,00*67
$GPRMC,003625.40,A,3547.2411178,N,13924.2954059,E,0.022,,120122,,,R,V*1B
$GPGSA,A,3,15,12,24,23,10,,,,,,,,1.48,0.67,1.33,1*13
$GPGSA,A,3,67,66,77,76,,,,,,,,,1.48,0.67,1.33,2*11
$GPGSA,A,3,04,09,24,31,05,,,,,,,,1.48,0.67,1.33,3*1C
$GPGSA,A,3,19,13,22,09,06,16,36,20,,,,,1.48,0.67,1.33,4*12
$GPZDA,003625.40,12,01,2022,00,00*60
$GPRMC,003625.50,A,3547.2411185,N,13924.2954062,E,0.014,,120122,,,R,V*15
$GPGSA,A,3,15,12,24,23,10,,,,,,,,1.48,0.67,1.33,1*13
$GPGSA,A,3,67,66,77,76,,,,,,,,,1.48,0.67,1.33,2*11
$GPGSA,A,3,04,09,24,31,05,,,,,,,,1.48,0.67,1.33,3*1C
$GPGSA,A,3,19,13,22,09,06,16,36,20,,,,,1.48,0.67,1.33,4*12
$GPZDA,003625.50,12,01,2022,00,00*61
$GPRMC,003625.60,A,3547.2411180,N,13924.2954060,E,0.008,,120122,,,R,V*1C
$GPGSA,A,3,15,12,24,23,10,,,,,,,,1.48,0.67,1.33,1*13
$GPGSA,A,3,67,66,77,76,,,,,,,,,1.48,0.67,1.33,2*11
$GPGSA,A,3,04,09,24,31,05,,,,,,,,1.48,0.67,1.33,3*1C
$GPGSA,A,3,19,13,22,09,06,16,36,20,,,,,1.48,0.67,1.33,4*12
$GPZDA,003625.60,12,01,2022,00,00*62
$GPRMC,003625.70,A,3547.2411177,N,13924.2954054,E,0.011,,120122,,,R,V*1A
$GPGSA,A,3,15,12,24,23,10,,,,,,,,1.48,0.67,1.33,1*13
$GPGSA,A,3,67,66,77,76,,,,,,,,,1.48,0.67,1.33,2*11
$GPGSA,A,3,04,09,24,31,05,,,,,,,,1.48,0.67,1.33,3*1C
$GPGSA,A,3,19,13,22,09,06,16,36,20,,,,,1.48,0.67,1.33,4*12
$GPZDA,003625.70,12,01,2022,00,00*63
$GPRMC,003625.80,A,3547.2411194,N,13924.2954068,E,0.013,,120122,,,R,V*15
$GPGSA,A,3,15,12,24,23,10,,,,,,,,1.48,0.67,1.33,1*13
$GPGSA,A,3,67,66,77,76,,,,,,,,,1.48,0.67,1.33,2*11
$GPGSA,A,3,04,09,24,31,05,,,,,,,,1.48,0.67,1.33,3*1C
$GPGSA,A,3,19,13,22,09,06,16,36,20,,,,,1.48,0.67,1.33,4*12
$GPZDA,003625.80,12,01,2022,00,00*6C
$GPRMC,003625.90,A,3547.2411202,N,13924.2954074,E,0.041,,120122,,,R,V*12
$GPGSA,A,3,15,12,24,23,10,,,,,,,,1.48,0.67,1.33,1*13
$GPGSA,A,3,67,66,77,76,,,,,,,,,1.48,0.67,1.33,2*11
$GPGSA,A,3,04,09,24,31,05,,,,,,,,1.48,0.67,1.33,3*1C
$GPGSA,A,3,19,13,22,09,06,16,36,20,,,,,1.48,0.67,1.33,4*12
$GPZDA,003625.90,12,01,2022,00,00*6D
$GPRMC,003626.00,A,3547.2411190,N,13924.2954062,E,0.029,,120122,,,R,V*19
$GPGSA,A,3,15,12,24,23,10,,,,,,,,1.48,0.67,1.33,1*13
$GPGSA,A,3,67,66,77,76,,,,,,,,,1.48,0.67,1.33,2*11
$GPGSA,A,3,04,09,24,31,05,,,,,,,,1.48,0.67,1.33,3*1C
$GPGSA,A,3,19,13,22,09,06,16,36,20,,,,,1.48,0.67,1.33,4*12
$GPZDA,003626.00,12,01,2022,00,00*67
$GPRMC,003626.10,A,3547.2411192,N,13924.2954057,E,0.022,,120122,,,R,V*17
$GPGSA,A,3,15,12,24,23,10,,,,,,,,1.48,0.67,1.33,1*13
$GPGSA,A,3,67,66,77,76,,,,,,,,,1.48,0.67,1.33,2*11
$GPGSA,A,3,04,09,24,31,05,,,,,,,,1.48,0.67,1.33,3*1C
$GPGSA,A,3,19,13,22,09,06,16,36,20,,,,,1.48,0.67,1.33,4*12
$GPZDA,003626.10,12,01,2022,00,00*66
$GPRMC,003626.20,A,3547.2411192,N,13924.2954062,E,0.013,,120122,,,R,V*10
$GPGSA,A,3,15,12,24,23,10,,,,,,,,1.48,0.67,1.33,1*13
$GPGSA,A,3,67,66,77,76,,,,,,,,,1.48,0.67,1.33,2*11
$GPGSA,A,3,04,09,24,31,05,,,,,,,,1.48,0.67,1.33,3*1C
$GPGSA,A,3,19,13,22,09,06,16,36,20,,,,,1.48,0.67,1.33,4*12
$GPZDA,003626.20,12,01,2022,00,00*65
$GPRMC,003626.30,A,3547.2411187,N,13924.2954051,E,0.005,,120122,,,R,V*12
$GPGGA,003626.30,3547.2411187,N,13924.2954051,E,4,12,0.67,124.696,M,38.868,M,1.3,1006*7F
$GPGSA,A,3,15,12,24,23,10,,,,,,,,1.48,0.67,1.33,1*13
$GPGSA,A,3,67,66,77,76,,,,,,,,,1.48,0.67,1.33,2*11
$GPGSA,A,3,04,09,24,31,05,,,,,,,,1.48,0.67,1.33,3*1C
$GPGSA,A,3,19,13,22,09,06,16,36,20,,,,,1.48,0.67,1.33,4*12
$GPGSV,3,1,11,05,05,149,,10,39,313,47,12,39,152,42,13,14,087,39,1*68
$GPGSV,3,2,11,15,45,087,44,18,18,223,25,23,71,277,45,24,72,020,44,1*6E
$GPGSV,3,3,11,25,17,184,,28,,,35,32,07,291,39,1*62
$GPGSV,3,1,10,05,05,149,,10,39,313,43,12,39,152,42,13,14,087,,6*60
$GPGSV,3,2,10,15,45,087,38,18,18,223,26,23,71,277,43,24,72,020,44,6*66
$GPGSV,3,3,10,25,17,184,17,32,07,291,36,6*61
$GLGSV,2,1,07,65,10,123,,66,60,080,50,67,46,336,50,68,01,314,36,1*79
$GLGSV,2,2,07,75,00,029,19,76,52,037,51,77,70,190,40,1*43
$GLGSV,2,1,07,65,10,123,,66,60,080,45,67,46,336,46,68,01,314,26,3*79
$GLGSV,2,2,07,75,00,029,29,76,52,037,46,77,70,190,37,3*44
$GAGSV,2,1,07,01,12,037,28,04,21,100,41,05,44,312,45,09,67,053,46,7*70
$GAGSV,2,2,07,24,47,166,43,31,54,079,46,36,12,229,23,7*46
$GAGSV,2,1,07,01,12,037,,04,21,100,37,05,44,312,46,09,67,053,44,2*7F
$GAGSV,2,2,07,24,47,166,41,31,54,079,42,36,12,229,26,2*40
$GBGSV,2,1,08,06,46,288,44,09,35,278,42,13,46,247,43,16,51,295,45,1*75
$GBGSV,2,2,08,19,84,025,48,20,37,126,43,22,32,315,44,36,51,213,46,1*70
$GBGSV,2,1,08,06,46,288,41,09,35,278,39,13,46,247,41,16,51,295,44,3*7D
$GBGSV,2,2,08,19,84,025,,20,37,126,,22,32,315,,36,51,213,,3*7B
$GPZDA,003626.30,12,01,2022,00,00*64
$GPRMC,003626.40,A,3547.2411178,N,13924.2954058,E,0.021,,120122,,,R,V*1A
$GPGSA,A,3,15,12,24,23,10,,,,,,,,1.48,0.67,1.33,1*13
$GPGSA,A,3,67,66,77,76,,,,,,,,,1.48,0.67,1.33,2*11
$GPGSA,A,3,04,09,24,31,05,,,,,,,,1.48,0.67,1.33,3*1C
$GPGSA,A,3,19,13,22,09,06,16,36,20,,,,,1.48,0.67,1.33,4*12
$GPZDA,003626.40,12,01,2022,00,00*63
$GPRMC,003626.50,A,3547.2411183,N,13924.2954056,E,0.027,,120122,,,R,V*17
$GPGSA,A,3,15,12,24,23,10,,,,,,,,1.48,0.67,1.33,1*13
$GPGSA,A,3,67,66,77,76,,,,,,,,,1.48,0.67,1.33,2*11
$GPGSA,A,3,04,09,24,31,05,,,,,,,,1.48,0.67,1.33,3*1C
$GPGSA,A,3,19,13,22,09,06,16,36,20,,,,,1.48,0.67,1.33,4*12
$GPZDA,003626.50,12,01,2022,00,00*62
$GPRMC,003626.60,A,3547.2411181,N,13924.2954063,E,0.004,,120122,,,R,V*11
$GPGSA,A,3,15,12,24,23,10,,,,,,,,1.48,0.67,1.33,1*13
$GPGSA,A,3,67,66,77,76,,,,,,,,,1.48,0.67,1.33,2*11
$GPGSA,A,3,04,09,24,31,05,,,,,,,,1.48,0.67,1.33,3*1C
$GPGSA,A,3,19,13,22,09,06,16,36,20,,,,,1.48,0.67,1.33,4*12
$GPZDA,003626.60,12,01,2022,00,00*61
$GPRMC,003626.70,A,3547.2411176,N,13924.2954066,E,0.012,,120122,,,R,V*1A
$GPGSA,A,3,15,12,24,23,10,,,,,,,,1.48,0.67,1.33,1*13
$GPGSA,A,3,67,66,77,76,,,,,,,,,1.48,0.67,1.33,2*11
$GPGSA,A,3,04,09,24,31,05,,,,,,,,1.48,0.67,1.33,3*1C
$GPGSA,A,3,19,13,22,09,06,16,36,20,,,,,1.48,0.67,1.33,4*12
$GPZDA,003626.70,12,01,2022,00,00*60
$GPRMC,003626.80,A,3547.2411198,N,13924.2954070,E,0.013,,120122,,,R,V*13
$GPGSA,A,3,15,12,24,23,10,,,,,,,,1.48,0.67,1.33,1*13
$GPGSA,A,3,67,66,77,76,,,,,,,,,1.48,0.67,1.33,2*11
$GPGSA,A,3,04,09,24,31,05,,,,,,,,1.48,0.67,1.33,3*1C
$GPGSA,A,3,19,13,22,09,06,16,36,20,,,,,1.48,0.67,1.33,4*12
$GPZDA,003626.80,12,01,2022,00,00*6F
$GPRMC,003626.90,A,3547.2411197,N,13924.2954075,E,0.044,,120122,,,R,V*1A
$GPGSA,A,3,15,12,24,23,10,,,,,,,,1.48,0.67,1.33,1*13
$GPGSA,A,3,67,66,77,76,,,,,,,,,1.48,0.67,1.33,2*11
$GPGSA,A,3,04,09,24,31,05,,,,,,,,1.48,0.67,1.33,3*1C
$GPGSA,A,3,19,13,22,09,06,16,36,20,,,,,1.48,0.67,1.33,4*12
$GPZDA,003626.90,12,01,2022,00,00*6E
$GPRMC,003627.00,A,3547.2411204,N,13924.2954075,E,0.019,,120122,,,R,V*13
$GPGSA,A,3,15,12,24,23,10,,,,,,,,1.48,0.67,1.33,1*13
$GPGSA,A,3,67,66,77,76,,,,,,,,,1.48,0.67,1.33,2*11
$GPGSA,A,3,04,09,24,31,05,,,,,,,,1.48,0.67,1.33,3*1C
$GPGSA,A,3,19,13,22,09,06,16,36,20,,,,,1.48,0.67,1.33,4*12
$GPZDA,003627.00,12,01,2022,00,00*66
$GPRMC,003627.10,A,3547.2411202,N,13924.2954078,E,0.017,,120122,,,R,V*17
$GPGSA,A,3,15,12,24,23,10,,,,,,,,1.48,0.67,1.33,1*13
$GPGSA,A,3,67,66,77,76,,,,,,,,,1.48,0.67,1.33,2*11
$GPGSA,A,3,04,09,24,31,05,,,,,,,,1.48,0.67,1.33,3*1C
$GPGSA,A,3,19,13,22,09,06,16,36,20,,,,,1.48,0.67,1.33,4*12
$GPZDA,003627.10,12,01,2022,00,00*67
$GPRMC,003627.20,A,3547.2411198,N,13924.2954073,E,0.006,,120122,,,R,V*1F
$GPGSA,A,3,15,12,24,23,10,,,,,,,,1.48,0.67,1.33,1*13
$GPGSA,A,3,67,66,77,76,,,,,,,,,1.48,0.67,1.33,2*11
$GPGSA,A,3,04,09,24,31,05,,,,,,,,1.48,0.67,1.33,3*1C
$GPGSA,A,3,19,13,22,09,06,16,36,20,,,,,1.48,0.67,1.33,4*12
$GPZDA,003627.20,12,01,2022,00,00*64
$GPRMC,003627.30,A,3547.2411201,N,13924.2954076,E,0.012,,120122,,,R,V*1D
$GPGGA,003627.30,3547.2411201,N,13924.2954076,E,4,12,0.67,124.695,M,38.868,M,1.3,1006*75
$GPGSA,A,3,15,12,24,23,10,,,,,,,,1.48,0.67,1.33,1*13
$GPGSA,A,3,67,66,77,76,,,,,,,,,1.48,0.67,1.33,2*11
$GPGSA,A,3,04,09,24,31,05,,,,,,,,1.48,0.67,1.33,3*1C
$GPGSA,A,3,19,13,22,09,06,16,36,20,,,,,1.48,0.67,1.33,4*12
$GPGSV,3,1,11,05,05,149,,10,39,313,47,12,39,152,42,13,14,087,39,1*68
$GPGSV,3,2,11,15,45,087,44,18,18,223,25,23,71,277,45,24,72,020,44,1*6E
$GPGSV,3,3,11,25,17,184,,28,,,34,32,07,291,39,1*63
$GPGSV,3,1,10,05,05,149,,10,39,313,43,12,39,152,42,13,14,087,,6*60
$GPGSV,3,2,10,15,45,087,38,18,18,223,26,23,71,277,43,24,72,020,44,6*66
$GPGSV,3,3,10,25,17,184,16,32,07,291,36,6*60
$GLGSV,2,1,08,65,10,123,,66,60,080,50,67,46,336,50,68,01,314,36,1*76
$GLGSV,2,2,08,75,00,029,19,76,52,037,51,77,70,190,40,78,14,205,,1*71
$GLGSV,2,1,08,65,10,123,,66,60,080,45,67,46,336,46,68,01,314,26,3*76
$GLGSV,2,2,08,75,00,029,29,76,52,037,47,77,70,190,37,78,14,205,,3*77
$GAGSV,2,1,07,01,12,037,28,04,21,100,41,05,44,312,45,09,67,053,46,7*70
$GAGSV,2,2,07,24,47,166,43,31,54,079,46,36,12,229,23,7*46
$GAGSV,2,1,07,01,12,037,,04,21,100,37,05,44,312,46,09,67,053,43,2*78
$GAGSV,2,2,07,24,47,166,41,31,54,079,42,36,12,229,26,2*40
$GBGSV,2,1,08,06,46,288,44,09,35,278,42,13,46,247,43,16,51,295,45,1*75
$GBGSV,2,2,08,19,84,025,48,20,37,126,43,22,32,315,44,36,51,213,46,1*70
$GBGSV,2,1,08,06,46,288,41,09,35,278,39,13,46,247,41,16,51,295,44,3*7D
$GBGSV,2,2,08,19,84,025,,20,37,126,,22,32,315,,36,51,213,,3*7B
$GPZDA,003627.30,12,01,2022,00,00*65
$GPRMC,003627.40,A,3547.2411200,N,13924.2954080,E,0.009,,120122,,,R,V*18
$GPGSA,A,3,15,12,24,23,10,,,,,,,,1.48,0.67,1.33,1*13
$GPGSA,A,3,67,66,77,76,,,,,,,,,1.48,0.67,1.33,2*11
$GPGSA,A,3,04,09,24,31,05,,,,,,,,1.48,0.67,1.33,3*1C
$GPGSA,A,3,19,13,22,09,06,16,36,20,,,,,1.48,0.67,1.33,4*12
$GPZDA,003627.40,12,01,2022,00,00*62
$GPRMC,003627.50,A,3547.2411203,N,13924.2954082,E,0.010,,120122,,,R,V*10
$GPGSA,A,3,15,12,24,23,10,,,,,,,,1.48,0.67,1.33,1*13
$GPGSA,A,3,67,66,77,76,,,,,,,,,1.48,0.67,1.33,2*11
$GPGSA,A,3,04,09,24,31,05,,,,,,,,1.48,0.67,1.33,3*1C
$GPGSA,A,3,19,13,22,09,06,16,36,20,,,,,1.48,0.67,1.33,4*12
$GPZDA,003627.50,12,01,2022,00,00*63
$GPRMC,003627.60,A,3547.2411200,N,13924.2954081,E,0.006,,120122,,,R,V*14
$GPGSA,A,3,15,12,24,23,10,,,,,,,,1.48,0.67,1.33,1*13
$GPGSA,A,3,67,66,77,76,,,,,,,,,1.48,0.67,1.33,2*11
$GPGSA,A,3,04,09,24,31,05,,,,,,,,1.48,0.67,1.33,3*1C
$GPGSA,A,3,19,13,22,09,06,16,36,20,,,,,1.48,0.67,1.33,4*12
$GPZDA,003627.60,12,01,2022,00,00*60
$GPRMC,003627.70,A,3547.2411202,N,13924.2954084,E,0.006,,120122,,,R,V*12
$GPGSA,A,3,15,12,24,23,10,,,,,,,,1.48,0.67,1.33,1*13
$GPGSA,A,3,67,66,77,76,,,,,,,,,1.48,0.67,1.33,2*11
$GPGSA,A,3,04,09,24,31,05,,,,,,,,1.48,0.67,1.33,3*1C
$GPGSA,A,3,19,13,22,09,06,16,36,20,,,,,1.48,0.67,1.33,4*12
$GPZDA,003627.70,12,01,2022,00,00*61
$GPRMC,003627.80,A,3547.2411210,N,13924.2954084,E,0.001,,120122,,,R,V*19
$GPGSA,A,3,15,12,24,23,10,,,,,,,,1.48,0.67,1.33,1*13
$GPGSA,A,3,67,66,77,76,,,,,,,,,1.48,0.67,1.33,2*11
$GPGSA,A,3,04,09,24,31,05,,,,,,,,1.48,0.67,1.33,3*1C
$GPGSA,A,3,19,13,22,09,06,16,36,20,,,,,1.48,0.67,1.33,4*12
$GPZDA,003627.80,12,01,2022,00,00*6E
$GPRMC,003627.90,A,3547.2411220,N,13924.2954089,E,0.018,,120122,,,R,V*1E
$GPGSA,A,3,15,12,24,23,10,,,,,,,,1.49,0.67,1.33,1*12
$GPGSA,A,3,67,66,77,76,,,,,,,,,1.49,0.67,1.33,2*10
$GPGSA,A,3,04,09,24,31,05,,,,,,,,1.49,0.67,1.33,3*1D
$GPGSA,A,3,19,13,22,09,06,16,36,20,,,,,1.49,0.67,1.33,4*13
$GPZDA,003627.90,12,01,2022,00,00*6F
$GPRMC,003628.00,A,3547.2411222,N,13924.2954091,E,0.030,,120122,,,R,V*19
$GPGSA,A,3,15,12,24,23,10,,,,,,,,1.49,0.67,1.33,1*12
$GPGSA,A,3,67,66,77,76,,,,,,,,,1.49,0.67,1.33,2*10
$GPGSA,A,3,04,09,24,31,05,,,,,,,,1.49,0.67,1.33,3*1D
$GPGSA,A,3,19,13,22,09,06,16,36,20,,,,,1.49,0.67,1.33,4*13
$GPZDA,003628.00,12,01,2022,00,00*69
$GPRMC,003628.10,A,3547.2411218,N,13924.2954088,E,0.013,,120122,,,R,V*18
$GPGSA,A,3,15,12,24,23,10,,,,,,,,1.49,0.67,1.33,1*12
$GPGSA,A,3,67,66,77,76,,,,,,,,,1.49,0.67,1.33,2*10
$GPGSA,A,3,04,09,24,31,05,,,,,,,,1.49,0.67,1.33,3*1D
$GPGSA,A,3,19,13,22,09,06,16,36,20,,,,,1.49,0.67,1.33,4*13
$GPZDA,003628.10,12,01,2022,00,00*68
$GPRMC,003628.20,A,3547.2411219,N,13924.2954094,E,0.005,,120122,,,R,V*10
$GPGSA,A,3,15,12,24,23,10,,,,,,,,1.49,0.67,1.33,1*12
$GPGSA,A,3,67,66,77,76,,,,,,,,,1.49,0.67,1.33,2*10
$GPGSA,A,3,04,09,24,31,05,,,,,,,,1.49,0.67,1.33,3*1D
$GPGSA,A,3,19,13,22,09,06,16,36,20,,,,,1.49,0.67,1.33,4*13
$GPZDA,003628.20,12,01,2022,00,00*6B
$GPRMC,003628.30,A,3547.2411223,N,13924.2954091,E,0.010,,120122,,,R,V*19
$GPGGA,003628.30,3547.2411223,N,13924.2954091,E,4,12,0.67,124.693,M,38.868,M,1.3,1006*75
$GPGSA,A,3,15,12,24,23,10,,,,,,,,1.49,0.67,1.33,1*12
$GPGSA,A,3,67,66,77,76,,,,,,,,,1.49,0.67,1.33,2*10
$GPGSA,A,3,04,09,24,31,05,,,,,,,,1.49,0.67,1.33,3*1D
$GPGSA,A,3,19,13,22,09,06,16,36,20,,,,,1.49,0.67,1.33,4*13
$GPGSV,3,1,11,05,05,149,,10,39,313,47,12,39,152,42,13,14,087,39,1*68
$GPGSV,3,2,11,15,45,087,44,18,18,223,25,23,71,277,45,24,72,020,44,1*6E
$GPGSV,3,3,11,25,17,184,,28,,,34,32,07,291,39,1*63
$GPGSV,3,1,10,05,05,149,,10,39,313,43,12,39,152,42,13,14,087,,6*60
$GPGSV,3,2,10,15,45,087,38,18,18,223,26,23,71,277,44,24,72,020,44,6*61
$GPGSV,3,3,10,25,17,184,16,32,07,291,36,6*60
$GLGSV,2,1,08,65,10,123,,66,60,080,50,67,46,336,50,68,01,314,35,1*75
$GLGSV,2,2,08,75,00,029,19,76,52,037,51,77,70,190,40,78,14,205,21,1*72
$GLGSV,2,1,08,65,10,123,,66,60,080,45,67,46,336,46,68,01,314,26,3*76
$GLGSV,2,2,08,75,00,029,29,76,52,037,47,77,70,190,37,78,14,205,23,3*76
$GAGSV,2,1,07,01,12,037,29,04,21,100,41,05,44,312,45,09,67,053,46,7*71
$GAGSV,2,2,07,24,47,166,43,31,54,079,46,36,12,229,24,7*41
$GAGSV,2,1,07,01,12,037,,04,21,100,37,05,44,312,46,09,67,053,44,2*7F
$GAGSV,2,2,07,24,47,166,41,31,54,079,42,36,12,229,26,2*40
$GBGSV,2,1,08,06,46,288,44,09,35,278,42,13,46,247,43,16,51,295,45,1*75
$GBGSV,2,2,08,19,85,029,48,20,37,126,43,22,32,315,44,36,51,213,46,1*7D
$GBGSV,2,1,08,06,46,288,41,09,35,278,39,13,46,247,41,16,51,295,44,3*7D
$GBGSV,2,2,08,19,85,029,,20,37,126,,22,32,315,,36,51,213,,3*76
$GPZDA,003628.30,12,01,2022,00,00*6A
$GPRMC,003628.40,A,3547.2411218,N,13924.2954088,E,0.011,,120122,,,R,V*1F
$GPGSA,A,3,15,12,24,23,10,,,,,,,,1.49,0.67,1.33,1*12
$GPGSA,A,3,67,66,77,76,,,,,,,,,1.49,0.67,1.33,2*10
$GPGSA,A,3,04,09,24,31,05,,,,,,,,1.49,0.67,1.33,3*1D
$GPGSA,A,3,19,13,22,09,06,16,36,20,,,,,1.49,0.67,1.33,4*13
$GPZDA,003628.40,12,01,2022,00,00*6D
$GPRMC,003628.50,A,3547.2411226,N,13924.2954099,E,0.006,,120122,,,R,V*15
$GPGSA,A,3,15,12,24,23,10,,,,,,,,1.49,0.67,1.33,1*12
$GPGSA,A,3,67,66,77,76,,,,,,,,,1.49,0.67,1.33,2*10
$GPGSA,A,3,04,09,24,31,05,,,,,,,,1.49,0.67,1.33,3*1D
$GPGSA,A,3,19,13,22,09,06,16,36,20,,,,,1.49,0.67,1.33,4*13
$GPZDA,003628.50,12,01,2022,00,00*6C
$GPRMC,003628.60,A,3547.2411222,N,13924.2954094,E,0.022,,120122,,,R,V*19
$GPGSA,A,3,15,12,24,23,10,,,,,,,,1.49,0.67,1.33,1*12
$GPGSA,A,3,67,66,77,76,,,,,,,,,1.49,0.67,1.33,2*10
$GPGSA,A,3,04,09,24,31,05,,,,,,,,1.49,0.67,1.33,3*1D
$GPGSA,A,3,19,13,22,09,06,16,36,20,,,,,1.49,0.67,1.33,4*13
$GPZDA,003628.60,12,01,2022,00,00*6F
$GPRMC,003628.70,A,3547.2411228,N,13924.2954094,E,0.004,,120122,,,R,V*16
$GPGSA,A,3,15,12,24,23,10,,,,,,,,1.49,0.67,1.33,1*12
$GPGSA,A,3,67,66,77,76,,,,,,,,,1.49,0.67,1.33,2*10
$GPGSA,A,3,04,09,24,31,05,,,,,,,,1.49,0.67,1.33,3*1D
$GPGSA,A,3,19,13,22,09,06,16,36,20,,,,,1.49,0.67,1.33,4*13
$GPZDA,003628.70,12,01,2022,00,00*6E
$GPRMC,003628.80,A,3547.2411222,N,13924.2954086,E,0.012,,120122,,,R,V*17
$GPGSA,A,3,15,12,24,23,10,,,,,,,,1.49,0.67,1.33,1*12
$GPGSA,A,3,67,66,77,76,,,,,,,,,1.49,0.67,1.33,2*10
$GPGSA,A,3,04,09,24,31,05,,,,,,,,1.49,0.67,1.33,3*1D
$GPGSA,A,3,19,13,22,09,06,16,36,20,,,,,1.49,0.67,1.33,4*13
$GPZDA,003628.80,12,01,2022,00,00*61
$GPRMC,003628.90,A,3547.2411220,N,13924.2954087,E,0.013,,120122,,,R,V*14
$GPGSA,A,3,15,12,24,23,10,,,,,,,,1.49,0.67,1.33,1*12
$GPGSA,A,3,67,66,77,76,,,,,,,,,1.49,0.67,1.33,2*10
$GPGSA,A,3,04,09,24,31,05,,,,,,,,1.49,0.67,1.33,3*1D
$GPGSA,A,3,19,13,22,09,06,16,36,20,,,,,1.49,0.67,1.33,4*13
$GPZDA,003628.90,12,01,2022,00,00*60
$GPRMC,003629.00,A,3547.2411227,N,13924.2954085,E,0.007,,120122,,,R,V*1C
$GPGSA,A,3,15,12,24,23,10,,,,,,,,1.49,0.67,1.33,1*12
$GPGSA,A,3,67,66,77,76,,,,,,,,,1.49,0.67,1.33,2*10
$GPGSA,A,3,04,09,24,31,05,,,,,,,,1.49,0.67,1.33,3*1D
$GPGSA,A,3,19,13,22,09,06,16,36,20,,,,,1.49,0.67,1.33,4*13
$GPZDA,003629.00,12,01,2022,00,00*68
$GPRMC,003629.10,A,3547.2411222,N,13924.2954080,E,0.013,,120122,,,R,V*18
$GPGSA,A,3,15,12,24,23,10,,,,,,,,1.49,0.67,1.33,1*12
$GPGSA,A,3,67,66,77,76,,,,,,,,,1.49,0.67,1.33,2*10
$GPGSA,A,3,04,09,24,31,05,,,,,,,,1.49,0.67,1.33,3*1D
$GPGSA,A,3,19,13,22,09,06,16,36,20,,,,,1.49,0.67,1.33,4*13
$GPZDA,003629.10,12,01,2022,00,00*69
$GPRMC,003629.20,A,3547.2411223,N,13924.2954088,E,0.006,,120122,,,R,V*16
$GPGSA,A,3,15,12,24,23,10,,,,,,,,1.49,0.67,1.33,1*12
$GPGSA,A,3,67,66,77,76,,,,,,,,,1.49,0.67,1.33,2*10
$GPGSA,A,3,04,09,24,31,05,,,,,,,,1.49,0.67,1.33,3*1D
$GPGSA,A,3,19,13,22,09,06,16,36,20,,,,,1.49,0.67,1.33,4*13
$GPZDA,003629.20,12,01,2022,00,00*6A
$GPRMC,003629.30,A,3547.2411228,N,13924.2954086,E,0.009,,120122,,,R,V*1D
$GPGGA,003629.30,3547.2411228,N,13924.2954086,E,4,12,0.67,124.688,M,38.868,M,1.3,1006*73
$GPGSA,A,3,15,12,24,23,10,,,,,,,,1.49,0.67,1.33,1*12
$GPGSA,A,3,67,66,77,76,,,,,,,,,1.49,0.67,1.33,2*10
$GPGSA,A,3,04,09,24,31,05,,,,,,,,1.49,0.67,1.33,3*1D
$GPGSA,A,3,19,13,22,09,06,16,36,20,,,,,1.49,0.67,1.33,4*13
$GPGSV,3,1,11,05,05,149,,10,39,313,47,12,39,152,42,13,14,087,39,1*68
$GPGSV,3,2,11,15,45,087,44,18,18,223,24,23,71,277,45,24,72,020,44,1*6F
$GPGSV,3,3,11,25,17,184,,28,,,34,32,07,291,39,1*63
$GPGSV,3,1,10,05,05,149,,10,39,313,43,12,39,152,42,13,14,087,,6*60
$GPGSV,3,2,10,15,45,087,38,18,18,223,27,23,71,277,44,24,72,020,44,6*60
$GPGSV,3,3,10,25,17,184,17,32,07,291,36,6*61
$GLGSV,2,1,08,65,10,123,,66,60,080,50,67,46,336,49,68,01,314,36,1*7E
$GLGSV,2,2,08,75,00,029,20,76,52,037,51,77,70,190,40,78,14,205,21,1*78
$GLGSV,2,1,08,65,10,123,,66,60,080,45,67,46,336,46,68,01,314,27,3*77
$GLGSV,2,2,08,75,00,029,29,76,52,037,47,77,70,190,37,78,14,205,24,3*71
$GAGSV,2,1,07,01,12,037,29,04,21,100,41,05,44,312,45,09,67,053,46,7*71
$GAGSV,2,2,07,24,47,166,43,31,54,079,46,36,12,229,24,7*41
$GAGSV,2,1,07,01,12,037,,04,21,100,37,05,44,312,46,09,67,053,43,2*78
$GAGSV,2,2,07,24,47,166,41,31,54,079,42,36,12,229,26,2*40
$GBGSV,2,1,08,06,46,288,44,09,35,278,42,13,46,247,43,16,51,295,45,1*75
$GBGSV,2,2,08,19,85,029,47,20,37,127,43,22,32,315,44,36,51,213,46,1*73
$GBGSV,2,1,08,06,46,288,41,09,35,278,39,13,46,247,41,16,51,295,44,3*7D
$GBGSV,2,2,08,19,85,029,,20,37,127,,22,32,315,,36,51,213,,3*77
$GPZDA,003629.30,12,01,2022,00,00*6B
$GPRMC,003629.40,A,3547.2411225,N,13924.2954085,E,0.011,,120122,,,R,V*1D
$GPGSA,A,3,15,12,24,23,10,,,,,,,,1.49,0.67,1.33,1*12
$GPGSA,A,3,67,66,77,76,,,,,,,,,1.49,0.67,1.33,2*10
$GPGSA,A,3,04,09,24,31,05,,,,,,,,1.49,0.67,1.33,3*1D
$GPGSA,A,3,19,13,22,09,06,16,36,20,,,,,1.49,0.67,1.33,4*13
$GPZDA,003629.40,12,01,2022,00,00*6C
$GPRMC,003629.50,A,3547.2411229,N,13924.2954086,E,0.006,,120122,,,R,V*15
$GPGSA,A,3,15,12,24,23,10,,,,,,,,1.49,0.67,1.33,1*12
$GPGSA,A,3,67,66,77,76,,,,,,,,,1.49,0.67,1.33,2*10
$GPGSA,A,3,04,09,24,31,05,,,,,,,,1.49,0.67,1.33,3*1D
$GPGSA,A,3,19,13,22,09,06,16,36,20,,,,,1.49,0.67,1.33,4*13
$GPZDA,003629.50,12,01,2022,00,00*6D
$GPRMC,003629.60,A,3547.2411230,N,13924.2954093,E,0.011,,120122,,,R,V*1C
$GPGSA,A,3,15,12,24,23,10,,,,,,,,1.49,0.67,1.33,1*12
$GPGSA,A,3,67,66,77,76,,,,,,,,,1.49,0.67,1.33,2*10
$GPGSA,A,3,04,09,24,31,05,,,,,,,,1.49,0.67,1.33,3*1D
$GPGSA,A,3,19,13,22,09,06,16,36,20,,,,,1.49,0.67,1.33,4*13
$GPZDA,003629.60,12,01,2022,00,00*6E
$GPRMC,003629.70,A,3547.2411235,N,13924.2954092,E,0.011,,120122,,,R,V*19
$GPGSA,A,3,15,12,24,23,10,,,,,,,,1.49,0.67,1.33,1*12
$GPGSA,A,3,67,66,77,76,,,,,,,,,1.49,0.67,1.33,2*10
$GPGSA,A,3,04,09,24,31,05,,,,,,,,1.49,0.67,1.33,3*1D
$GPGSA,A,3,19,13,22,09,06,16,36,20,,,,,1.49,0.67,1.33,4*13
$GPZDA,003629.70,12,01,2022,00,00*6F
$GPRMC,003629.80,A,3547.2411223,N,13924.2954085,E,0.012,,120122,,,R,V*14
$GPGSA,A,3,15,12,24,23,10,,,,,,,,1.49,0.67,1.33,1*12
$GPGSA,A,3,67,66,77,76,,,,,,,,,1.49,0.67,1.33,2*10
$GPGSA,A,3,04,09,24,31,05,,,,,,,,1.49,0.67,1.33,3*1D
$GPGSA,A,3,19,13,22,09,06,16,36,20,,,,,1.49,0.67,1.33,4*13
$GPZDA,003629.80,12,01,2022,00,00*60
$GPRMC,003629.90,A,3547.2411226,N,13924.2954079,E,0.019,,120122,,,R,V*18
$GPGSA,A,3,15,12,24,23,10,,,,,,,,1.49,0.67,1.33,1*12
$GPGSA,A,3,67,66,77,76,,,,,,,,,1.49,0.67,1.33,2*10
$GPGSA,A,3,04,09,24,31,05,,,,,,,,1.49,0.67,1.33,3*1D
$GPGSA,A,3,19,13,22,09,06,16,36,20,,,,,1.49,0.67,1.33,4*13
$GPZDA,003629.90,12,01,2022,00,00*61
$GPRMC,003630.00,A,3547.2411221,N,13924.2954079,E,0.013,,120122,,,R,V*14
$GPGSA,A,3,15,12,24,23,10,,,,,,,,1.49,0.67,1.33,1*12
$GPGSA,A,3,67,66,77,76,,,,,,,,,1.49,0.67,1.33,2*10
$GPGSA,A,3,04,09,24,31,05,,,,,,,,1.49,0.67,1.33,3*1D
$GPGSA,A,3,19,13,22,09,06,16,36,20,,,,,1.49,0.67,1.33,4*13
$GPZDA,003630.00,12,01,2022,00,00*60
$GPRMC,003630.10,A,3547.2411226,N,13924.2954084,E,0.010,,120122,,,R,V*13
$GPGSA,A,3,15,12,24,23,10,,,,,,,,1.49,0.67,1.33,1*12
$GPGSA,A,3,67,66,77,76,,,,,,,,,1.49,0.67,1.33,2*10
$GPGSA,A,3,04,09,24,31,05,,,,,,,,1.49,0.67,1.33,3*1D
$GPGSA,A,3,19,13,22,09,06,16,36,20,,,,,1.49,0.67,1.33,4*13
$GPZDA,003630.10,12,01,2022,00,00*61
$GPRMC,003630.20,A,3547.2411229,N,13924.2954083,E,0.012,,120122,,,R,V*1A
$GPGSA,A,3,15,12,24,23,10,,,,,,,,1.49,0.67,1.33,1*12
$GPGSA,A,3,67,66,77,76,,,,,,,,,1.49,0.67,1.33,2*10
$GPGSA,A,3,04,09,24,31,05,,,,,,,,1.49,0.67,1.33,3*1D
$GPGSA,A,3,19,13,22,09,06,16,36,20,,,,,1.49,0.67,1.33,4*13
$GPZDA,003630.20,12,01,2022,00,00*62
$GPRMC,003630.30,A,3547.2411222,N,13924.2954079,E,0.012,,120122,,,R,V*15
$GPGGA,003630.30,3547.2411222,N,13924.2954079,E,4,12,0.67,124.693,M,38.868,M,1.3,1006*7B
$GPGSA,A,3,15,12,24,23,10,,,,,,,,1.49,0.67,1.33,1*12
$GPGSA,A,3,67,66,77,76,,,,,,,,,1.49,0.67,1.33,2*10
$GPGSA,A,3,04,09,24,31,05,,,,,,,,1.49,0.67,1.33,3*1D
$GPGSA,A,3,19,13,22,09,06,16,36,20,,,,,1.49,0.67,1.33,4*13
$GPGSV,3,1,11,05,05,149,,10,39,313,47,12,39,152,42,13,14,087,39,1*68
$GPGSV,3,2,11,15,45,087,44,18,18,223,24,23,71,277,45,24,72,020,44,1*6F
$GPGSV,3,3,11,25,17,184,,28,,,34,32,07,291,39,1*63
$GPGSV,3,1,10,05,05,149,,10,39,313,43,12,39,152,42,13,14,087,,6*60
$GPGSV,3,2,10,15,45,087,38,18,18,223,27,23,71,277,44,24,72,020,44,6*60
$GPGSV,3,3,10,25,17,184,17,32,07,291,36,6*61
$GLGSV,2,1,08,65,10,123,,66,60,080,50,67,46,336,49,68,01,314,36,1*7E
$GLGSV,2,2,08,75,00,029,20,76,52,037,51,77,70,190,40,78,14,205,21,1*78
$GLGSV,2,1,08,65,10,123,,66,60,080,45,67,46,336,45,68,01,314,27,3*74
$GLGSV,2,2,08,75,00,029,28,76,52,037,47,77,70,190,37,78,14,205,25,3*71
$GAGSV,2,1,07,01,12,037,29,04,21,100,41,05,44,312,45,09,67,053,46,7*71
$GAGSV,2,2,07,24,47,166,43,31,54,079,46,36,12,229,24,7*41
$GAGSV,2,1,07,01,12,037,,04,21,100,37,05,44,312,46,09,67,053,44,2*7F
$GAGSV,2,2,07,24,47,166,41,31,54,079,42,36,12,229,26,2*40
$GBGSV,2,1,08,06,46,288,44,09,35,278,42,13,46,247,43,16,51,295,45,1*75
$GBGSV,2,2,08,19,85,029,47,20,37,127,43,22,33,315,44,36,51,213,46,1*72
$GBGSV,2,1,08,06,46,288,41,09,35,278,39,13,46,247,41,16,51,295,44,3*7D
$GBGSV,2,2,08,19,85,029,,20,37,127,,22,33,315,,36,51,213,,3*76
$GPZDA,003630.30,12,01,2022,00,00*63
$GPRMC,003630.40,A,3547.2411224,N,13924.2954081,E,0.015,,120122,,,R,V*14
$GPGSA,A,3,15,12,24,23,10,,,,,,,,1.49,0.67,1.33,1*12
$GPGSA,A,3,67,66,77,76,,,,,,,,,1.49,0.67,1.33,2*10
$GPGSA,A,3,04,09,24,31,05,,,,,,,,1.49,0.67,1.33,3*1D
$GPGSA,A,3,19,13,22,09,06,16,36,20,,,,,1.49,0.67,1.33,4*13
$GPZDA,003630.40,12,01,2022,00,00*64
$GPRMC,003630.50,A,3547.2411225,N,13924.2954077,E,0.002,,120122,,,R,V*1B
$GPGSA,A,3,15,12,24,23,10,,,,,,,,1.49,0.67,1.33,1*12
$GPGSA,A,3,67,66,77,76,,,,,,,,,1.49,0.67,1.33,2*10
$GPGSA,A,3,04,09,24,31,05,,,,,,,,1.49,0.67,1.33,3*1D
$GPGSA,A,3,19,13,22,09,06,16,36,20,,,,,1.49,0.67,1.33,4*13
$GPZDA,003630.50,12,01,2022,00,00*65
$GPRMC,003630.60,A,3547.2411223,N,13924.2954083,E,0.009,,120122,,,R,V*1E
$GPGSA,A,3,15,12,24,23,10,,,,,,,,1.49,0.67,1.33,1*12
$GPGSA,A,3,67,66,77,76,,,,,,,,,1.49,0.67,1.33,2*10
$GPGSA,A,3,04,09,24,31,05,,,,,,,,1.49,0.67,1.33,3*1D
$GPGSA,A,3,19,13,22,09,06,16,36,20,,,,,1.49,0.67,1.33,4*13
$GPZDA,003630.60,12,01,2022,00,00*66
$GPRMC,003630.70,A,3547.2411226,N,13924.2954080,E,0.008,,120122,,,R,V*18
$GPGSA,A,3,15,12,24,23,10,,,,,,,,1.49,0.67,1.33,1*12
$GPGSA,A,3,67,66,77,76,,,,,,,,,1.49,0.67,1.33,2*10
$GPGSA,A,3,04,09,24,31,05,,,,,,,,1.49,0.67,1.33,3*1D
$GPGSA,A,3,19,13,22,09,06,16,36,20,,,,,1.49,0.67,1.33,4*13
$GPZDA,003630.70,12,01,2022,00,00*67
$GPRMC,003630.80,A,3547.2411216,N,13924.2954070,E,0.008,,120122,,,R,V*1B
$GPGSA,A,3,15,12,24,23,10,,,,,,,,1.49,0.67,1.33,1*12
$GPGSA,A,3,67,66,77,76,,,,,,,,,1.49,0.67,1.33,2*10
$GPGSA,A,3,04,09,24,31,05,,,,,,,,1.49,0.67,1.33,3*1D
$GPGSA,A,3,19,13,22,09,06,16,36,20,,,,,1.49,0.67,1.33,4*13
$GPZDA,003630.80,12,01,2022,00,00*68
$GPRMC,003630.90,A,3547.2411217,N,13924.2954071,E,0.025,,120122,,,R,V*15
$GPGSA,A,3,15,12,24,23,10,,,,,,,,1.49,0.67,1.33,1*12
$GPGSA,A,3,67,66,77,76,,,,,,,,,1.49,0.67,1.33,2*10
$GPGSA,A,3,04,09,24,31,05,,,,,,,,1.49,0.67,1.33,3*1D
$GPGSA,A,3,19,13,22,09,06,16,36,20,,,,,1.49,0.67,1.33,4*13
$GPZDA,003630.90,12,01,2022,00,00*69
$GPRMC,003631.00,A,3547.2411216,N,13924.2954075,E,0.005,,120122,,,R,V*1A
$GPGSA,A,3,15,12,24,23,10,,,,,,,,1.49,0.67,1.33,1*12
$GPGSA,A,3,67,66,77,76,,,,,,,,,1.49,0.67,1.33,2*10
$GPGSA,A,3,04,09,24,31,05,,,,,,,,1.49,0.67,1.33,3*1D
$GPGSA,A,3,19,13,22,09,06,16,36,20,,,,,1.49,0.67,1.33,4*13
$GPZDA,003631.00,12,01,2022,00,00*61
$GPRMC,003631.10,A,3547.2411214,N,13924.2954068,E,0.007,,120122,,,R,V*17
$GPGSA,A,3,15,12,24,23,10,,,,,,,,1.49,0.67,1.33,1*12
$GPGSA,A,3,67,66,77,76,,,,,,,,,1.49,0.67,1.33,2*10
$GPGSA,A,3,04,09,24,31,05,,,,,,,,1.49,0.67,1.33,3*1D
$GPGSA,A,3,19,13,22,09,06,16,36,20,,,,,1.49,0.67,1.33,4*13
$GPZDA,003631.10,12,01,2022,00,00*60
$GPRMC,003631.20,A,3547.2411211,N,13924.2954067,E,0.014,,120122,,,R,V*1C
$GPGSA,A,3,15,12,24,23,10,,,,,,,,1.49,0.67,1.33,1*12
$GPGSA,A,3,67,66,77,76,,,,,,,,,1.49,0.67,1.33,2*10
$GPGSA,A,3,04,09,24,31,05,,,,,,,,1.49,0.67,1.33,3*1D
$GPGSA,A,3,19,13,22,09,06,16,36,20,,,,,1.49,0.67,1.33,4*13
$GPZDA,003631.20,12,01,2022,00,00*63
$GPRMC,003631.30,A,3547.2411213,N,13924.2954067,E,0.006,,120122,,,R,V*1C
$GPGGA,003631.30,3547.2411213,N,13924.2954067,E,4,12,0.67,124.696,M,38.868,M,1.3,1006*72
$GPGSA,A,3,15,12,24,23,10,,,,,,,,1.49,0.67,1.33,1*12
$GPGSA,A,3,67,66,77,76,,,,,,,,,1.49,0.67,1.33,2*10
$GPGSA,A,3,04,09,24,31,05,,,,,,,,1.49,0.67,1.33,3*1D
$GPGSA,A,3,19,13,22,09,06,16,36,20,,,,,1.49,0.67,1.33,4*13
$GPGSV,3,1,11,05,05,149,,10,39,313,47,12,39,152,42,13,14,087,39,1*68
$GPGSV,3,2,11,15,45,087,44,18,18,223,23,23,71,277,45,24,72,020,44,1*68
$GPGSV,3,3,11,25,17,184,,28,,,34,32,07,291,39,1*63
$GPGSV,3,1,10,05,05,149,,10,39,313,43,12,39,152,42,13,14,087,,6*60
$GPGSV,3,2,10,15,45,087,38,18,18,223,27,23,71,277,44,24,72,020,44,6*60
$GPGSV,3,3,10,25,17,184,17,32,07,291,37,6*60
$GLGSV,2,1,08,65,10,123,,66,60,080,50,67,46,336,49,68,01,314,35,1*7D
$GLGSV,2,2,08,75,00,029,21,76,52,037,51,77,70,190,41,78,14,205,20,1*79
$GLGSV,2,1,08,65,10,123,,66,60,080,45,67,46,336,45,68,01,314,27,3*74
$GLGSV,2,2,08,75,00,029,28,76,52,037,47,77,70,190,37,78,14,205,26,3*72
$GAGSV,2,1,07,01,12,037,29,04,21,100,41,05,44,312,45,09,67,053,46,7*71
$GAGSV,2,2,07,24,47,166,43,31,54,079,46,36,12,229,25,7*40
$GAGSV,2,1,07,01,12,037,,04,21,100,37,05,44,312,46,09,67,053,44,2*7F
$GAGSV,2,2,07,24,47,166,41,31,54,079,42,36,12,229,26,2*40
$GBGSV,2,1,08,06,46,288,44,09,35,278,42,13,46,247,43,16,51,295,45,1*75
$GBGSV,2,2,08,19,85,029,47,20,37,127,43,22,33,315,44,36,51,213,46,1*72
$GBGSV,2,1,08,06,46,288,41,09,35,278,39,13,46,247,41,16,51,295,44,3*7D
$GBGSV,2,2,08,19,85,029,,20,37,127,,22,33,315,,36,51,213,,3*76
$GPZDA,003631.30,12,01,2022,00,00*62
$GPRMC,003631.40,A,3547.2411222,N,13924.2954072,E,0.002,,120122,,,R,V*19
$GPGSA,A,3,15,12,24,23,10,,,,,,,,1.49,0.67,1.33,1*12
$GPGSA,A,3,67,66,77,76,,,,,,,,,1.49,0.67,1.33,2*10
$GPGSA,A,3,04,09,24,31,05,,,,,,,,1.49,0.67,1.33,3*1D
$GPGSA,A,3,19,13,22,09,06,16,36,20,,,,,1.49,0.67,1.33,4*13
$GPZDA,003631.40,12,01,2022,00,00*65
$GPRMC,003631.50,A,3547.2411218,N,13924.2954073,E,0.020,,120122,,,R,V*10
$GPGSA,A,3,15,12,24,23,10,,,,,,,,1.49,0.67,1.33,1*12
$GPGSA,A,3,67,66,77,76,,,,,,,,,1.49,0.67,1.33,2*10
$GPGSA,A,3,04,09,24,31,05,,,,,,,,1.49,0.67,1.33,3*1D
$GPGSA,A,3,19,13,22,09,06,16,36,20,,,,,1.49,0.67,1.33,4*13
$GPZDA,003631.50,12,01,2022,00,00*64
$GPRMC,003631.60,A,3547.2411215,N,13924.2954076,E,0.004,,120122,,,R,V*1D
$GPGSA,A,3,15,12,24,23,10,,,,,,,,1.49,0.67,1.33,1*12
$GPGSA,A,3,67,66,77,76,,,,,,,,,1.49,0.67,1.33,2*10
$GPGSA,A,3,04,09,24,31,05,,,,,,,,1.49,0.67,1.33,3*1D
$GPGSA,A,3,19,13,22,09,06,16,36,20,,,,,1.49,0.67,1.33,4*13
$GPZDA,003631.60,12,01,2022,00,00*67
$GPRMC,003631.70,A,3547.2411219,N,13924.2954068,E,0.005,,120122,,,R,V*1E
$GPGSA,A,3,15,12,24,23,10,,,,,,,,1.49,0.67,1.33,1*12
$GPGSA,A,3,67,66,77,76,,,,,,,,,1.49,0.67,1.33,2*10
$GPGSA,A,3,04,09,24,31,05,,,,,,,,1.49,0.67,1.33,3*1D
$GPGSA,A,3,19,13,22,09,06,16,36,20,,,,,1.49,0.67,1.33,4*13
$GPZDA,003631.70,12,01,2022,00,00*66
$GPRMC,003631.80,A,3547.2411217,N,13924.2954068,E,0.011,,120122,,,R,V*1A
$GPGSA,A,3,15,12,24,23,10,,,,,,,,1.49,0.67,1.33,1*12
$GPGSA,A,3,67,66,77,76,,,,,,,,,1.49,0.67,1.33,2*10
$GPGSA,A,3,04,09,24,31,05,,,,,,,,1.49,0.67,1.33,3*1D
$GPGSA,A,3,19,13,22,09,06,16,36,20,,,,,1.49,0.67,1.33,4*13
$GPZDA,003631.80,12,01,2022,00,00*69
$GPRMC,003631.90,A,3547.2411218,N,13924.2954071,E,0.003,,120122,,,R,V*1F
$GPGSA,A,3,15,12,24,23,10,,,,,,,,1.49,0.67,1.33,1*12
$GPGSA,A,3,67,66,77,76,,,,,,,,,1.49,0.67,1.33,2*10
$GPGSA,A,3,04,09,24,31,05,,,,,,,,1.49,0.67,1.33,3*1D
$GPGSA,A,3,19,13,22,09,06,16,36,20,,,,,1.49,0.67,1.33,4*13
$GPZDA,003631.90,12,01,2022,00,00*68
$GPRMC,003632.00,A,3547.2411212,N,13924.2954063,E,0.003,,120122,,,R,V*1C
$GPGSA,A,3,15,12,24,23,10,,,,,,,,1.49,0.67,1.33,1*12
$GPGSA,A,3,67,66,77,76,,,,,,,,,1.49,0.67,1.33,2*10
$GPGSA,A,3,04,09,24,31,05,,,,,,,,1.49,0.67,1.33,3*1D
$GPGSA,A,3,19,13,22,09,06,16,36,20,,,,,1.49,0.67,1.33,4*13
$GPZDA,003632.00,12,01,2022,00,00*62
$GPRMC,003632.10,A,3547.2411217,N,13924.2954069,E,0.013,,120122,,,R,V*13
$GPGSA,A,3,15,12,24,23,10,,,,,,,,1.49,0.67,1.33,1*12
$GPGSA,A,3,67,66,77,76,,,,,,,,,1.49,0.67,1.33,2*10
$GPGSA,A,3,04,09,24,31,05,,,,,,,,1.49,0.67,1.33,3*1D
$GPGSA,A,3,19,13,22,09,06,16,36,20,,,,,1.49,0.67,1.33,4*13
$GPZDA,003632.10,12,01,2022,00,00*63
$GPRMC,003632.20,A,3547.2411209,N,13924.2954068,E,0.008,,120122,,,R,V*14
$GPGSA,A,3,15,12,24,23,10,,,,,,,,1.49,0.67,1.33,1*12
$GPGSA,A,3,67,66,77,76,,,,,,,,,1.49,0.67,1.33,2*10
$GPGSA,A,3,04,09,24,31,05,,,,,,,,1.49,0.67,1.33,3*1D
$GPGSA,A,3,19,13,22,09,06,16,36,20,,,,,1.49,0.67,1.33,4*13
$GPZDA,003632.20,12,01,2022,00,00*60
$GPRMC,003632.30,A,3547.2411212,N,13924.2954062,E,0.011,,120122,,,R,V*1D
$GPGGA,003632.30,3547.2411212,N,13924.2954062,E,4,12,0.67,124.695,M,38.868,M,1.3,1006*76
$GPGSA,A,3,15,12,24,23,10,,,,,,,,1.49,0.67,1.33,1*12
$GPGSA,A,3,67,66,77,76,,,,,,,,,1.49,0.67,1.33,2*10
$GPGSA,A,3,04,09,24,31,05,,,,,,,,1.49,0.67,1.33,3*1D
$GPGSA,A,3,19,13,22,09,06,16,36,20,,,,,1.49,0.67,1.33,4*13
$GPGSV,3,1,11,05,05,149,,10,39,313,47,12,39,152,42,13,14,087,39,1*68
$GPGSV,3,2,11,15,45,087,44,18,18,223,22,23,71,277,45,24,72,020,44,1*69
$GPGSV,3,3,11,25,17,184,,28,,,34,32,07,291,40,1*6D
$GPGSV,3,1,10,05,05,149,,10,39,313,43,12,39,152,42,13,14,087,,6*60
$GPGSV,3,2,10,15,45,087,38,18,18,223,27,23,71,277,44,24,72,020,44,6*60
$GPGSV,3,3,10,25,17,184,16,32,07,291,37,6*61
$GLGSV,2,1,08,65,10,123,,66,60,080,50,67,46,336,49,68,01,314,36,1*7E
$GLGSV,2,2,08,75,00,029,20,76,52,037,51,77,70,190,40,78,14,205,20,1*79
$GLGSV,2,1,08,65,10,123,,66,60,080,45,67,46,336,45,68,01,314,27,3*74
$GLGSV,2,2,08,75,00,029,28,76,52,037,47,77,70,190,37,78,14,205,27,3*73
$GAGSV,2,1,07,01,12,037,29,04,21,100,41,05,44,312,45,09,67,053,46,7*71
$GAGSV,2,2,07,24,47,166,43,31,54,079,46,36,12,229,25,7*40
$GAGSV,2,1,07,01,12,037,,04,21,100,37,05,44,312,46,09,67,053,44,2*7F
$GAGSV,2,2,07,24,47,166,41,31,54,079,42,36,12,229,26,2*40
$GBGSV,2,1,08,06,46,288,44,09,35,278,42,13,46,247,43,16,51,295,45,1*75
$GBGSV,2,2,08,19,85,029,47,20,37,127,42,22,33,315,44,36,51,213,46,1*73
$GBGSV,2,1,08,06,46,288,41,09,35,278,39,13,46,247,41,16,51,295,44,3*7D
$GBGSV,2,2,08,19,85,029,,20,37,127,,22,33,315,,36,51,213,,3*76
$GPZDA,003632.30,12,01,2022,00,00*61
$GPRMC,003632.40,A,3547.2411212,N,13924.2954064,E,0.012,,120122,,,R,V*1F
$GPGSA,A,3,15,12,24,23,10,,,,,,,,1.49,0.67,1.33,1*12
$GPGSA,A,3,67,66,77,76,,,,,,,,,1.49,0.67,1.33,2*10
$GPGSA,A,3,04,09,24,31,05,,,,,,,,1.49,0.67,1.33,3*1D
$GPGSA,A,3,19,13,22,09,06,16,36,20,,,,,1.49,0.67,1.33,4*13
$GPZDA,003632.40,12,01,2022,00,00*66
$GPRMC,003632.50,A,3547.2411211,N,13924.2954061,E,0.002,,120122,,,R,V*19
$GPGSA,A,3,15,12,24,23,10,,,,,,,,1.49,0.67,1.33,1*12
$GPGSA,A,3,67,66,77,76,,,,,,,,,1.49,0.67,1.33,2*10
$GPGSA,A,3,04,09,24,31,05,,,,,,,,1.49,0.67,1.33,3*1D
$GPGSA,A,3,19,13,22,09,06,16,36,20,,,,,1.49,0.67,1.33,4*13
$GPZDA,003632.50,12,01,2022,00,00*67
$GPRMC,003632.60,A,3547.2411218,N,13924.2954064,E,0.007,,120122,,,R,V*13
$GPGSA,A,3,15,12,24,23,10,,,,,,,,1.49,0.67,1.33,1*12
$GPGSA,A,3,67,66,77,76,,,,,,,,,1.49,0.67,1.33,2*10
$GPGSA,A,3,04,09,24,31,05,,,,,,,,1.49,0.67,1.33,3*1D
$GPGSA,A,3,19,13,22,09,06,16,36,20,,,,,1.49,0.67,1.33,4*13
$GPZDA,003632.60,12,01,2022,00,00*64
$GPRMC,003632.70,A,3547.2411218,N,13924.2954063,E,0.013,,120122,,,R,V*10
$GPGSA,A,3,15,12,24,23,10,,,,,,,,1.49,0.67,1.33,1*12
$GPGSA,A,3,67,66,77,76,,,,,,,,,1.49,0.67,1.33,2*10
$GPGSA,A,3,04,09,24,31,05,,,,,,,,1.49,0.67,1.33,3*1D
