11,29,03,042,20,193,,,,43,,,31*7B
$GLGSV,1,1,00*65
$GPRMC,074955.900,A,3606.7687,N,13940.2104,E,0.05,105.18,060122,,,A*67
$GPVTG,105.18,T,,M,0.05,N,0.10,K,A*34
$GPGGA,074956.000,3606.7687,N,13940.2104,E,1,8,1.00,7.6,M,39.0,M,,*52
$GPGLL,3606.7687,N,13940.2104,E,074956.000,A,A*55
$GPGSA,A,3,31,27,16,08,09,18,26,04,,,,,1.95,1.00,1.68*09
$GLGSA,A,3,,,,,,,,,,,,,1.95,1.00,1.68*1D
$GPGSV,3,1,11,26,61,039,28,16,58,313,34,27,50,223,22,31,45,132,30*77
$GPGSV,3,2,11,04,34,285,26,18,31,079,26,08,18,224,31,09,13,316,23*78
$GPGSV,3,3,11,29,03,042,20,193,,,,43,,,31*7B
$GLGSV,1,1,00*65
$GPRMC,074956.000,A,3606.7687,N,13940.2104,E,0.05,105.18,060122,,,A*6D
$GPVTG,105.18,T,,M,0.05,N,0.10,K,A*34
$GPGGA,074956.100,3606.7687,N,13940.2104,E,1,8,1.00,7.6,M,39.0,M,,*53
$GPGLL,3606.7687,N,13940.2104,E,074956.100,A,A*54
$GPGSA,A,3,31,27,16,08,09,18,26,04,,,,,1.95,1.00,1.68*09
$GLGSA,A,3,,,,,,,,,,,,,1.95,1.00,1.68*1D
$GPGSV,3,1,11,26,61,039,28,16,58,313,34,27,50,223,22,31,45,132,30*77
$GPGSV,3,2,11,04,34,285,26,18,31,079,26,08,18,224,31,09,13,316,23*78
$GPGSV,3,3,11,29,03,042,20,193,,,,43,,,31*7B
$GLGSV,1,1,00*65
$GPRMC,074956.100,A,3606.7687,N,13940.2104,E,0.05,105.18,060122,,,A*6C
$GPVTG,105.18,T,,M,0.05,N,0.10,K,A*34
$GPGGA,074956.200,3606.7687,N,13940.2104,E,1,8,1.00,7.6,M,39.0,M,,*50
$GPGLL,3606.7687,N,13940.2104,E,074956.200,A,A*57
$GPGSA,A,3,31,27,16,08,09,18,26,04,,,,,1.95,1.00,1.68*09
$GLGSA,A,3,,,,,,,,,,,,,1.95,1.00,1.68*1D
$GPGSV,3,1,11,26,61,039,28,16,58,313,34,27,50,223,22,31,45,132,30*77
$GPGSV,3,2,11,04,34,285,26,18,31,079,26,08,18,224,31,09,13,316,23*78
$GPGSV,3,3,11,29,03,042,20,193,,,,43,,,31*7B
$GLGSV,1,1,00*65
$GPRMC,074956.200,A,3606.7687,N,13940.2104,E,0.05,105.18,060122,,,A*6F
$GPVTG,105.18,T,,M,0.05,N,0.10,K,A*34
$GPGGA,074956.300,3606.7687,N,13940.2104,E,1,8,1.00,7.6,M,39.0,M,,*51
$GPGLL,3606.7687,N,13940.2104,E,074956.300,A,A*56
$GPGSA,A,3,31,27,16,08,09,18,26,04,,,,,1.95,1.00,1.68*09
$GLGSA,A,3,,,,,,,,,,,,,1.95,1.00,1.68*1D
$GPGSV,3,1,11,26,61,039,28,16,58,313,34,27,50,223,22,31,45,132,30*77
$GPGSV,3,2,11,04,34,285,26,18,31,079,26,08,18,224,31,09,13,316,23*78
$GPGSV,3,3,11,29,03,042,20,193,,,,43,,,31*7B
$GLGSV,1,1,00*65
$GPRMC,074956.300,A,3606.7687,N,13940.2104,E,0.06,105.18,060122,,,A*6D
$GPVTG,105.18,T,,M,0.06,N,0.10,K,A*37
$GPGGA,074956.400,3606.7687,N,13940.2104,E,1,8,1.00,7.6,M,39.0,M,,*56
$GPGLL,3606.7687,N,13940.2104,E,074956.400,A,A*51
$GPGSA,A,3,31,27,16,08,09,18,26,04,,,,,1.95,1.00,1.68*09
$GLGSA,A,3,,,,,,,,,,,,,1.95,1.00,1.68*1D
$GPGSV,3,1,11,26,61,039,28,16,58,313,34,27,50,223,22,31,45,132,30*77
$GPGSV,3,2,11,04,34,285,26,18,31,079,26,08,18,224,31,09,13,316,23*78
$GPGSV,3,3,11,29,03,042,20,193,,,,43,,,31*7B
$GLGSV,1,1,00*65
$GPRMC,074956.400,A,3606.7687,N,13940.2104,E,0.06,105.18,060122,,,A*6A
$GPVTG,105.18,T,,M,0.06,N,0.11,K,A*36
$GPGGA,074956.500,3606.7687,N,13940.2104,E,1,8,1.00,7.6,M,39.0,M,,*57
$GPGLL,3606.7687,N,13940.2104,E,074956.500,A,A*50
$GPGSA,A,3,31,27,16,08,09,18,26,04,,,,,1.95,1.00,1.68*09
$GLGSA,A,3,,,,,,,,,,,,,1.95,1.00,1.68*1D
$GPGSV,3,1,11,26,61,039,28,16,58,313,34,27,50,223,22,31,45,132,30*77
$GPGSV,3,2,11,04,34,285,26,18,31,079,26,08,18,224,31,09,13,316,23*78
$GPGSV,3,3,11,29,03,042,20,193,,,,43,,,31*7B
$GLGSV,1,1,00*65
$GPRMC,074956.500,A,3606.7687,N,13940.2104,E,0.06,105.18,060122,,,A*6B
$GPVTG,105.18,T,,M,0.06,N,0.11,K,A*36
$GPGGA,074956.600,3606.7686,N,13940.2104,E,1,8,1.00,7.6,M,39.0,M,,*55
$GPGLL,3606.7686,N,13940.2104,E,074956.600,A,A*52
$GPGSA,A,3,31,27,16,08,09,18,26,04,,,,,1.95,1.00,1.68*09
$GLGSA,A,3,,,,,,,,,,,,,1.95,1.00,1.68*1D
$GPGSV,3,1,11,26,61,039,28,16,58,313,34,27,50,223,22,31,45,132,30*77
$GPGSV,3,2,11,04,34,285,26,18,31,079,26,08,18,224,31,09,13,316,23*78
$GPGSV,3,3,11,29,03,042,20,193,,,,43,,,31*7B
$GLGSV,1,1,00*65
$GPRMC,074956.600,A,3606.7686,N,13940.2104,E,0.06,105.18,060122,,,A*69
$GPVTG,105.18,T,,M,0.06,N,0.11,K,A*36
$GPGGA,074956.700,3606.7686,N,13940.2104,E,1,8,1.00,7.6,M,39.0,M,,*54
$GPGLL,3606.7686,N,13940.2104,E,074956.700,A,A*53
$GPGSA,A,3,31,27,16,08,09,18,26,04,,,,,1.95,1.00,1.68*09
$GLGSA,A,3,,,,,,,,,,,,,1.95,1.00,1.68*1D
$GPGSV,3,1,11,26,61,039,28,16,58,313,34,27,50,223,22,31,45,132,30*77
$GPGSV,3,2,11,04,34,285,26,18,31,079,26,08,18,224,31,09,13,316,23*78
$GPGSV,3,3,11,29,03,042,20,193,,,,43,,,31*7B
$GLGSV,1,1,00*65
$GPRMC,074956.700,A,3606.7686,N,13940.2104,E,0.06,105.18,060122,,,A*68
$GPVTG,105.18,T,,M,0.06,N,0.11,K,A*36
$GPGGA,074956.800,3606.7686,N,13940.2105,E,1,8,1.00,7.6,M,39.0,M,,*5A
$GPGLL,3606.7686,N,13940.2105,E,074956.800,A,A*5D
$GPGSA,A,3,31,27,16,08,09,18,26,04,,,,,1.95,1.00,1.68*09
$GLGSA,A,3,,,,,,,,,,,,,1.95,1.00,1.68*1D
$GPGSV,3,1,11,26,61,039,28,16,58,313,34,27,50,223,22,31,45,132,30*77
$GPGSV,3,2,11,04,34,285,25,18,31,079,26,08,18,224,30,09,13,316,23*7A
$GPGSV,3,3,11,29,03,042,20,193,,,,43,,,31*7B
$GLGSV,1,1,00*65
$GPRMC,074956.800,A,3606.7686,N,13940.2105,E,0.06,105.18,060122,,,A*66
$GPVTG,105.18,T,,M,0.06,N,0.11,K,A*36
$GPGGA,074956.900,3606.7686,N,13940.2105,E,1,8,1.00,7.6,M,39.0,M,,*5B
$GPGLL,3606.7686,N,13940.2105,E,074956.900,A,A*5C
$GPGSA,A,3,31,27,16,08,09,18,26,04,,,,,1.95,1.00,1.68*09
$GLGSA,A,3,,,,,,,,,,,,,1.95,1.00,1.68*1D
$GPGSV,3,1,11,26,61,039,28,16,58,313,34,27,50,223,22,31,45,132,30*77
$GPGSV,3,2,11,04,34,285,25,18,31,079,26,08,18,224,30,09,13,316,23*7A
$GPGSV,3,3,11,29,03,042,19,193,,,,43,,,31*71
$GLGSV,1,1,00*65
$GPRMC,074956.900,A,3606.7686,N,13940.2105,E,0.06,105.18,060122,,,A*67
$GPVTG,105.18,T,,M,0.06,N,0.11,K,A*36
$GPGGA,074957.000,3606.7686,N,13940.2105,E,1,8,1.00,7.5,M,39.0,M,,*50
$GPGLL,3606.7686,N,13940.2105,E,074957.000,A,A*54
$GPGSA,A,3,31,27,16,08,09,18,26,04,,,,,1.95,1.00,1.68*09
$GLGSA,A,3,,,,,,,,,,,,,1.95,1.00,1.68*1D
$GPGSV,3,1,11,26,61,039,28,16,58,313,34,27,50,223,22,31,45,132,30*77
$GPGSV,3,2,11,04,34,285,25,18,31,079,26,08,18,224,30,09,13,316,23*7A
$GPGSV,3,3,11,29,03,042,19,193,,,,43,,,31*71
$GLGSV,1,1,00*65
$GPRMC,074957.000,A,3606.7686,N,13940.2105,E,0.06,105.18,060122,,,A*6F
$GPVTG,105.18,T,,M,0.06,N,0.11,K,A*36
$GPGGA,074957.100,3606.7686,N,13940.2105,E,1,8,1.00,7.5,M,39.0,M,,*51
$GPGLL,3606.7686,N,13940.2105,E,074957.100,A,A*55
$GPGSA,A,3,31,27,16,08,09,18,26,04,,,,,1.95,1.00,1.68*09
$GLGSA,A,3,,,,,,,,,,,,,1.95,1.00,1.68*1D
$GPGSV,3,1,11,26,61,039,28,16,58,313,34,27,50,223,22,31,45,132,30*77
$GPGSV,3,2,11,04,34,285,25,18,31,079,26,08,18,224,30,09,13,316,23*7A
$GPGSV,3,3,11,29,03,042,19,193,,,,43,,,31*71
$GLGSV,1,1,00*65
$GPRMC,074957.100,A,3606.7686,N,13940.2105,E,0.06,105.18,060122,,,A*6E
$GPVTG,105.18,T,,M,0.06,N,0.11,K,A*36
$GPGGA,074957.200,3606.7686,N,13940.2105,E,1,8,1.00,7.5,M,39.0,M,,*52
$GPGLL,3606.7686,N,13940.2105,E,074957.200,A,A*56
$GPGSA,A,3,31,27,16,08,09,18,26,04,,,,,1.95,1.00,1.68*09
$GLGSA,A,3,,,,,,,,,,,,,1.95,1.00,1.68*1D
$GPGSV,3,1,11,26,61,039,28,16,58,313,34,27,50,223,22,31,45,132,30*77
$GPGSV,3,2,11,04,34,285,25,18,31,079,26,08,18,224,30,09,13,316,23*7A
$GPGSV,3,3,11,29,03,042,19,193,,,,43,,,31*71
$GLGSV,1,1,00*65
$GPRMC,074957.200,A,3606.7686,N,13940.2105,E,0.06,105.18,060122,,,A*6D
$GPVTG,105.18,T,,M,0.06,N,0.12,K,A*35
$GPGGA,074957.300,3606.7686,N,13940.2105,E,1,8,1.00,7.5,M,39.0,M,,*53
$GPGLL,3606.7686,N,13940.2105,E,074957.300,A,A*57
$GPGSA,A,3,31,27,16,08,09,18,26,04,,,,,1.95,1.00,1.68*09
$GLGSA,A,3,,,,,,,,,,,,,1.95,1.00,1.68*1D
$GPGSV,3,1,11,26,61,039,28,16,58,313,34,27,50,223,22,31,45,132,30*77
$GPGSV,3,2,11,04,34,285,25,18,31,079,26,08,18,224,30,09,13,316,23*7A
$GPGSV,3,3,11,29,03,042,19,193,,,,43,,,31*71
$GLGSV,1,1,00*65
$GPRMC,074957.300,A,3606.7686,N,13940.2105,E,0.07,105.18,060122,,,A*6D
$GPVTG,105.18,T,,M,0.07,N,0.12,K,A*34
$GPGGA,074957.400,3606.7685,N,13940.2105,E,1,8,1.00,7.5,M,39.0,M,,*57
$GPGLL,3606.7685,N,13940.2105,E,074957.400,A,A*53
$GPGSA,A,3,31,27,16,08,09,18,26,04,,,,,1.95,1.00,1.68*09
$GLGSA,A,3,,,,,,,,,,,,,1.95,1.00,1.68*1D
$GPGSV,3,1,11,26,61,039,28,16,58,313,34,27,50,223,22,31,45,132,30*77
$GPGSV,3,2,11,04,34,285,25,18,31,079,26,08,18,224,30,09,13,315,23*79
$GPGSV,3,3,11,29,03,042,19,193,,,,43,,,31*71
$GLGSV,1,1,00*65
$GPRMC,074957.400,A,3606.7685,N,13940.2105,E,0.07,105.18,060122,,,A*69
$GPVTG,105.18,T,,M,0.07,N,0.12,K,A*34
$GPGGA,074957.500,3606.7685,N,13940.2105,E,1,8,1.00,7.5,M,39.0,M,,*56
$GPGLL,3606.7685,N,13940.2105,E,074957.500,A,A*52
$GPGSA,A,3,31,27,16,08,09,18,26,04,,,,,1.95,1.00,1.68*09
$GLGSA,A,3,,,,,,,,,,,,,1.95,1.00,1.68*1D
$GPGSV,3,1,11,26,61,039,28,16,58,313,34,27,50,223,22,31,45,132,30*77
$GPGSV,3,2,11,04,34,285,25,18,31,079,26,08,18,224,30,09,13,315,23*79
$GPGSV,3,3,11,29,03,042,19,193,,,,43,,,31*71
$GLGSV,1,1,00*65
$GPRMC,074957.500,A,3606.7685,N,13940.2105,E,0.07,105.18,060122,,,A*68
$GPVTG,105.18,T,,M,0.07,N,0.13,K,A*35
$GPGGA,074957.600,3606.7685,N,13940.2105,E,1,8,1.00,7.5,M,39.0,M,,*55
$GPGLL,3606.7685,N,13940.2105,E,074957.600,A,A*51
$GPGSA,A,3,31,27,16,08,09,18,26,04,,,,,1.95,1.00,1.68*09
$GLGSA,A,3,,,,,,,,,,,,,1.95,1.00,1.68*1D
$GPGSV,3,1,11,26,61,039,28,16,58,313,34,27,50,223,22,31,45,132,30*77
$GPGSV,3,2,11,04,34,285,25,18,31,079,26,08,18,224,30,09,13,315,23*79
$GPGSV,3,3,11,29,03,042,19,193,,,,43,,,31*71
$GLGSV,1,1,00*65
$GPRMC,074957.600,A,3606.7685,N,13940.2105,E,0.07,105.18,060122,,,A*6B
$GPVTG,105.18,T,,M,0.07,N,0.13,K,A*35
$GPGGA,074957.700,3606.7685,N,13940.2105,E,1,8,1.00,7.4,M,39.0,M,,*55
$GPGLL,3606.7685,N,13940.2105,E,074957.700,A,A*50
$GPGSA,A,3,31,27,16,08,09,18,26,04,,,,,1.95,1.00,1.68*09
$GLGSA,A,3,,,,,,,,,,,,,1.95,1.00,1.68*1D
$GPGSV,3,1,11,26,61,039,28,16,58,313,34,27,50,223,22,31,45,132,30*77
$GPGSV,3,2,11,04,34,285,25,18,31,079,26,08,18,224,30,09,13,315,22*78
$GPGSV,3,3,11,29,03,042,19,193,,,,43,,,31*71
$GLGSV,1,1,00*65
$GPRMC,074957.700,A,3606.7685,N,13940.2105,E,0.07,105.18,060122,,,A*6A
$GPVTG,105.18,T,,M,0.07,N,0.13,K,A*35
$GPGGA,074957.800,3606.7685,N,13940.2105,E,1,8,1.00,7.4,M,39.0,M,,*5A
$GPGLL,3606.7685,N,13940.2105,E,074957.800,A,A*5F
$GPGSA,A,3,31,27,16,08,09,18,26,04,,,,,1.95,1.00,1.68*09
$GLGSA,A,3,,,,,,,,,,,,,1.95,1.00,1.68*1D
$GPGSV,3,1,11,26,61,039,28,16,58,313,34,27,50,223,22,31,45,132,30*77
$GPGSV,3,2,11,04,34,285,25,18,31,079,27,08,18,224,30,09,13,315,22*79
$GPGSV,3,3,11,29,03,042,19,193,,,,43,,,31*71
$GLGSV,1,1,00*65
$GPRMC,074957.800,A,3606.7685,N,13940.2105,E,0.07,105.18,060122,,,A*65
$GPVTG,105.18,T,,M,0.07,N,0.14,K,A*32
$GPGGA,074957.900,3606.7685,N,13940.2106,E,1,8,1.00,7.4,M,39.0,M,,*58
$GPGLL,3606.7685,N,13940.2106,E,074957.900,A,A*5D
$GPGSA,A,3,31,27,16,08,09,18,26,04,,,,,1.95,1.00,1.68*09
$GLGSA,A,3,,,,,,,,,,,,,1.95,1.00,1.68*1D
$GPGSV,3,1,11,26,61,039,27,16,58,313,34,27,50,223,22,31,45,132,30*78
$GPGSV,3,2,11,04,34,285,25,18,31,079,27,08,18,224,30,09,13,315,22*79
$GPGSV,3,3,11,29,03,042,19,193,,,,43,,,31*71
$GLGSV,1,1,00*65
$GPRMC,074957.900,A,3606.7685,N,13940.2106,E,0.07,105.18,060122,,,A*67
$GPVTG,105.18,T,,M,0.07,N,0.14,K,A*32
$GPGGA,074958.000,3606.7684,N,13940.2106,E,1,8,0.98,7.4,M,39.0,M,,*5F
$GPGLL,3606.7684,N,13940.2106,E,074958.000,A,A*5A
$GPGSA,A,3,31,27,16,08,09,18,26,04,,,,,1.30,0.98,0.86*07
$GLGSA,A,3,,,,,,,,,,,,,1.30,0.98,0.86*13
$GPGSV,3,1,11,26,61,039,27,16,58,313,34,27,50,223,22,31,45,132,30*78
$GPGSV,3,2,11,04,34,285,25,18,31,079,27,08,18,224,30,09,13,315,22*79
$GPGSV,3,3,11,29,03,042,19,193,,,,43,,,31*71
$GLGSV,1,1,00*65
$GPRMC,074958.000,A,3606.7684,N,13940.2106,E,0.08,105.18,060122,,,A*6F
$GPVTG,105.18,T,,M,0.08,N,0.14,K,A*3D
$GPGGA,074958.100,3606.7684,N,13940.2106,E,1,8,1.00,7.4,M,39.0,M,,*5E
$GPGLL,3606.7684,N,13940.2106,E,074958.100,A,A*5B
$GPGSA,A,3,31,27,16,08,09,18,26,04,,,,,1.95,1.00,1.68*09
$GLGSA,A,3,,,,,,,,,,,,,1.95,1.00,1.68*1D
$GPGSV,3,1,11,26,61,039,27,16,58,313,34,27,50,223,22,31,45,132,30*78
$GPGSV,3,2,11,04,34,285,25,18,31,079,27,08,18,224,30,09,13,315,22*79
$GPGSV,3,3,11,29,03,042,19,193,,,,43,,,31*71
$GLGSV,1,1,00*65
$GPRMC,074958.100,A,3606.7684,N,13940.2106,E,0.08,105.18,060122,,,A*6E
$GPVTG,105.18,T,,M,0.08,N,0.14,K,A*3D
$GPGGA,074958.200,3606.7684,N,13940.2106,E,1,8,1.00,7.4,M,39.0,M,,*5D
$GPGLL,3606.7684,N,13940.2106,E,074958.200,A,A*58
$GPGSA,A,3,31,27,16,08,09,18,26,04,,,,,1.95,1.00,1.68*09
$GLGSA,A,3,,,,,,,,,,,,,1.95,1.00,1.68*1D
$GPGSV,3,1,11,26,61,039,27,16,58,313,34,27,50,223,22,31,45,132,30*78
$GPGSV,3,2,11,04,34,285,25,18,31,079,27,08,18,224,30,09,13,315,22*79
$GPGSV,3,3,11,29,03,042,19,193,,,,43,,,31*71
$GLGSV,1,1,00*65
$GPRMC,074958.200,A,3606.7684,N,13940.2106,E,0.08,105.18,060122,,,A*6D
$GPVTG,105.18,T,,M,0.08,N,0.14,K,A*3D
$GPGGA,074958.300,3606.7684,N,13940.2106,E,1,8,1.00,7.4,M,39.0,M,,*5C
$GPGLL,3606.7684,N,13940.2106,E,074958.300,A,A*59
$GPGSA,A,3,31,27,16,08,09,18,26,04,,,,,1.95,1.00,1.68*09
$GLGSA,A,3,,,,,,,,,,,,,1.95,1.00,1.68*1D
$GPGSV,3,1,11,26,61,039,27,16,58,313,34,27,50,223,22,31,45,132,30*78
$GPGSV,3,2,11,04,34,285,25,18,31,079,27,08,18,224,30,09,13,315,22*79
$GPGSV,3,3,11,29,03,042,19,193,,,,43,,,31*71
$GLGSV,1,1,00*65
$GPRMC,074958.300,A,3606.7684,N,13940.2106,E,0.08,105.18,060122,,,A*6C
$GPVTG,105.18,T,,M,0.08,N,0.15,K,A*3C
$GPGGA,074958.400,3606.7684,N,13940.2106,E,1,8,1.00,7.4,M,39.0,M,,*5B
$GPGLL,3606.7684,N,13940.2106,E,074958.400,A,A*5E
$GPGSA,A,3,31,27,16,08,09,18,26,04,,,,,1.95,1.00,1.68*09
$GLGSA,A,3,,,,,,,,,,,,,1.95,1.00,1.68*1D
$GPGSV,3,1,11,26,61,039,27,16,58,313,34,27,50,223,22,31,45,132,30*78
$GPGSV,3,2,11,04,34,285,25,18,31,079,27,08,18,224,30,09,13,315,22*79
$GPGSV,3,3,11,29,03,042,19,193,,,,43,,,31*71
$GLGSV,1,1,00*65
$GPRMC,074958.400,A,3606.7684,N,13940.2106,E,0.08,105.18,060122,,,A*6B
$GPVTG,105.18,T,,M,0.08,N,0.15,K,A*3C
$GPGGA,074958.500,3606.7684,N,13940.2106,E,1,8,1.00,7.4,M,39.0,M,,*5A
$GPGLL,3606.7684,N,13940.2106,E,074958.500,A,A*5F
$GPGSA,A,3,31,27,16,08,09,18,26,04,,,,,1.95,1.00,1.68*09
$GLGSA,A,3,,,,,,,,,,,,,1.95,1.00,1.68*1D
$GPGSV,3,1,11,26,61,039,27,16,58,313,34,27,50,223,22,31,45,132,30*78
$GPGSV,3,2,11,04,34,285,25,18,31,079,27,08,18,224,30,09,13,315,22*79
$GPGSV,3,3,11,29,03,042,19,193,,,,43,,,31*71
$GLGSV,1,1,00*65
$GPRMC,074958.500,A,3606.7684,N,13940.2106,E,0.08,105.18,060122,,,A*6A
$GPVTG,105.18,T,,M,0.08,N,0.15,K,A*3C
$GPGGA,074958.600,3606.7684,N,13940.2106,E,1,8,1.00,7.4,M,39.0,M,,*59
$GPGLL,3606.7684,N,13940.2106,E,074958.600,A,A*5C
$GPGSA,A,3,31,27,16,08,09,18,26,04,,,,,1.95,1.00,1.68*09
$GLGSA,A,3,,,,,,,,,,,,,1.95,1.00,1.68*1D
$GPGSV,3,1,11,26,61,039,27,16,58,313,34,27,50,223,22,31,45,132,30*78
$GPGSV,3,2,11,04,34,285,25,18,31,079,27,08,18,224,30,09,13,315,22*79
$GPGSV,3,3,11,29,03,042,19,193,,,,43,,,31*71
$GLGSV,1,1,00*65
$GPRMC,074958.600,A,3606.7684,N,13940.2106,E,0.08,105.18,060122,,,A*69
$GPVTG,105.18,T,,M,0.08,N,0.15,K,A*3C
$GPGGA,074958.700,3606.7684,N,13940.2106,E,1,8,1.00,7.4,M,39.0,M,,*58
$GPGLL,3606.7684,N,13940.2106,E,074958.700,A,A*5D
$GPGSA,A,3,31,27,16,08,09,18,26,04,,,,,1.95,1.00,1.68*09
$GLGSA,A,3,,,,,,,,,,,,,1.95,1.00,1.68*1D
$GPGSV,3,1,11,26,61,039,27,16,58,313,34,27,50,223,22,31,45,132,30*78
$GPGSV,3,2,11,04,34,285,25,18,31,079,27,08,18,224,30,09,13,315,22*79
$GPGSV,3,3,11,29,03,042,19,193,,,,43,,,31*71
$GLGSV,1,1,00*65
$GPRMC,074958.700,A,3606.7684,N,13940.2106,E,0.08,105.18,060122,,,A*68
$GPVTG,105.18,T,,M,0.08,N,0.15,K,A*3C
$GPGGA,074958.800,3606.7683,N,13940.2106,E,1,8,1.00,7.4,M,39.0,M,,*50
$GPGLL,3606.7683,N,13940.2106,E,074958.800,A,A*55
$GPGSA,A,3,31,27,16,08,09,18,26,04,,,,,1.95,1.00,1.68*09
$GLGSA,A,3,,,,,,,,,,,,,1.95,1.00,1.68*1D
$GPGSV,3,1,11,26,61,039,27,16,58,313,34,27,50,223,22,31,45,132,30*78
$GPGSV,3,2,11,04,34,285,25,18,31,079,27,08,18,224,30,09,13,315,22*79
$GPGSV,3,3,11,29,03,042,19,193,,,,43,,,31*71
$GLGSV,1,1,00*65
$GPRMC,074958.800,A,3606.7683,N,13940.2106,E,0.08,105.18,060122,,,A*60
$GPVTG,105.18,T,,M,0.08,N,0.15,K,A*3C
$GPGGA,074958.900,3606.7683,N,13940.2106,E,1,8,1.00,7.4,M,39.0,M,,*51
$GPGLL,3606.7683,N,13940.2106,E,074958.900,A,A*54
$GPGSA,A,3,31,27,16,08,09,18,26,04,,,,,1.95,1.00,1.68*09
$GLGSA,A,3,,,,,,,,,,,,,1.95,1.00,1.68*1D
$GPGSV,3,1,11,26,61,039,27,16,58,313,34,27,50,223,22,31,45,132,30*78
$GPGSV,3,2,11,04,34,285,25,18,31,079,27,08,18,224,30,09,13,315,22*79
$GPGSV,3,3,11,29,03,042,19,193,,,,43,,,31*71
$GLGSV,1,1,00*65
$GPRMC,074958.900,A,3606.7683,N,13940.2106,E,0.08,105.18,060122,,,A*61
$GPVTG,105.18,T,,M,0.08,N,0.16,K,A*3F
$GPGGA,074959.000,3606.7683,N,13940.2106,E,1,8,1.00,7.3,M,39.0,M,,*5E
$GPGLL,3606.7683,N,13940.2106,E,074959.000,A,A*5C
$GPGSA,A,3,31,27,16,08,09,18,26,04,,,,,1.95,1.00,1.68*09
$GLGSA,A,3,,,,,,,,,,,,,1.95,1.00,1.68*1D
$GPGSV,3,1,11,26,61,039,28,16,58,313,34,27,50,223,22,31,45,132,30*77
$GPGSV,3,2,11,04,34,285,25,18,31,079,27,08,18,224,30,09,13,315,22*79
$GPGSV,3,3,11,29,03,042,19,193,,,,43,,,31*71
$GLGSV,1,1,00*65
$GPRMC,074959.000,A,3606.7683,N,13940.2106,E,0.08,105.18,060122,,,A*69
$GPVTG,105.18,T,,M,0.08,N,0.16,K,A*3F
$GPGGA,074959.100,3606.7683,N,13940.2106,E,1,8,1.00,7.3,M,39.0,M,,*5F
$GPGLL,3606.7683,N,13940.2106,E,074959.100,A,A*5D
$GPGSA,A,3,31,27,16,08,09,18,26,04,,,,,1.95,1.00,1.68*09
$GLGSA,A,3,,,,,,,,,,,,,1.95,1.00,1.68*1D
$GPGSV,3,1,11,26,61,039,28,16,58,313,34,27,50,223,22,31,45,132,30*77
$GPGSV,3,2,11,04,34,285,25,18,31,079,27,08,18,224,30,09,13,315,22*79
$GPGSV,3,3,11,29,03,042,19,193,,,,43,,,31*71
$GLGSV,1,1,00*65
$GPRMC,074959.100,A,3606.7683,N,13940.2106,E,0.09,105.18,060122,,,A*69
$GPVTG,105.18,T,,M,0.09,N,0.16,K,A*3E
$GPGGA,074959.200,3606.7683,N,13940.2106,E,1,8,1.00,7.3,M,39.0,M,,*5C
$GPGLL,3606.7683,N,13940.2106,E,074959.200,A,A*5E
$GPGSA,A,3,31,27,16,08,09,18,26,04,,,,,1.95,1.00,1.68*09
$GLGSA,A,3,,,,,,,,,,,,,1.95,1.00,1.68*1D
$GPGSV,3,1,11,26,61,039,28,16,58,313,34,27,50,223,22,31,45,132,30*77
$GPGSV,3,2,11,04,34,285,25,18,31,079,27,08,18,224,30,09,13,315,22*79
$GPGSV,3,3,11,29,03,042,19,193,,,,43,,,30*70
$GLGSV,1,1,00*65
$GPRMC,074959.200,A,3606.7683,N,13940.2106,E,0.09,105.18,060122,,,A*6A
$GPVTG,105.18,T,,M,0.09,N,0.16,K,A*3E
$GPGGA,074959.300,3606.7683,N,13940.2106,E,1,8,1.00,7.3,M,39.0,M,,*5D
$GPGLL,3606.7683,N,13940.2106,E,074959.300,A,A*5F
$GPGSA,A,3,31,27,16,08,09,18,26,04,,,,,1.95,1.00,1.68*09
$GLGSA,A,3,,,,,,,,,,,,,1.95,1.00,1.68*1D
$GPGSV,3,1,11,26,61,039,28,16,58,313,34,27,50,223,22,31,45,132,30*77
$GPGSV,3,2,11,04,34,285,25,18,31,079,27,08,18,224,30,09,13,315,22*79
$GPGSV,3,3,11,29,03,042,19,193,,,,43,,,30*70
$GLGSV,1,1,00*65
$GPRMC,074959.300,A,3606.7683,N,13940.2106,E,0.09,105.18,060122,,,A*6B
$GPVTG,105.18,T,,M,0.09,N,0.16,K,A*3E
$GPGGA,074959.400,3606.7682,N,13940.2106,E,1,8,1.00,7.3,M,39.0,M,,*5B
$GPGLL,3606.7682,N,13940.2106,E,074959.400,A,A*59
$GPGSA,A,3,31,27,16,08,09,18,26,04,,,,,1.95,1.00,1.68*09
$GLGSA,A,3,,,,,,,,,,,,,1.95,1.00,1.68*1D
$GPGSV,3,1,11,26,61,039,28,16,58,313,34,27,50,223,22,31,45,132,30*77
$GPGSV,3,2,11,04,34,285,25,18,31,079,27,08,18,224,30,09,13,315,22*79
$GPGSV,3,3,11,29,03,042,19,193,,,,43,,,30*70
$GLGSV,1,1,00*65
$GPRMC,074959.400,A,3606.7682,N,13940.2106,E,0.09,105.18,060122,,,A*6D
$GPVTG,105.18,T,,M,0.09,N,0.17,K,A*3F
$GPGGA,074959.500,3606.7682,N,13940.2106,E,1,8,1.00,7.3,M,39.0,M,,*5A
$GPGLL,3606.7682,N,13940.2106,E,074959.500,A,A*58
$GPGSA,A,3,31,27,16,08,09,18,26,04,,,,,1.95,1.00,1.68*09
$GLGSA,A,3,,,,,,,,,,,,,1.95,1.00,1.68*1D
$GPGSV,3,1,11,26,61,039,28,16,58,313,34,27,50,223,22,31,45,132,30*77
$GPGSV,3,2,11,04,34,285,25,18,31,079,27,08,18,224,30,09,13,315,22*79
$GPGSV,3,3,11,29,03,042,19,193,,,,43,,,30*70
$GLGSV,1,1,00*65
$GPRMC,074959.500,A,3606.7682,N,13940.2106,E,0.09,105.18,060122,,,A*6C
$GPVTG,105.18,T,,M,0.09,N,0.17,K,A*3F
$GPGGA,074959.600,3606.7682,N,13940.2106,E,1,8,1.00,7.3,M,39.0,M,,*59
$GPGLL,3606.7682,N,13940.2106,E,074959.600,A,A*5B
$GPGSA,A,3,31,27,16,08,09,18,26,04,,,,,1.95,1.00,1.68*09
$GLGSA,A,3,,,,,,,,,,,,,1.95,1.00,1.68*1D
$GPGSV,3,1,11,26,61,039,28,16,58,313,34,27,50,223,22,31,45,132,30*77
$GPGSV,3,2,11,04,34,285,25,18,31,079,27,08,18,224,30,09,13,315,22*79
$GPGSV,3,3,11,29,03,042,19,193,,,,43,,,30*70
$GLGSV,1,1,00*65
$GPRMC,074959.600,A,3606.7682,N,13940.2106,E,0.09,105.18,060122,,,A*6F
$GPVTG,105.18,T,,M,0.09,N,0.17,K,A*3F
$GPGGA,074959.700,3606.7682,N,13940.2106,E,1,8,1.00,7.3,M,39.0,M,,*58
$GPGLL,3606.7682,N,13940.2106,E,074959.700,A,A*5A
$GPGSA,A,3,31,27,16,08,09,18,26,04,,,,,1.95,1.00,1.68*09
$GLGSA,A,3,,,,,,,,,,,,,1.95,1.00,1.68*1D
$GPGSV,3,1,11,26,61,039,28,16,58,313,34,27,50,223,22,31,45,132,30*77
$GPGSV,3,2,11,04,34,285,25,18,31,079,26,08,18,224,30,09,13,315,22*78
$GPGSV,3,3,11,29,03,042,19,193,,,,43,,,30*70
$GLGSV,1,1,00*65
$GPRMC,074959.700,A,3606.7682,N,13940.2106,E,0.09,105.18,060122,,,A*6E
$GPVTG,105.18,T,,M,0.09,N,0.17,K,A*3F
$GPGGA,074959.800,3606.7682,N,13940.2106,E,1,8,1.00,7.3,M,39.0,M,,*57
$GPGLL,3606.7682,N,13940.2106,E,074959.800,A,A*55
$GPGSA,A,3,31,27,16,08,09,18,26,04,,,,,1.95,1.00,1.68*09
$GLGSA,A,3,,,,,,,,,,,,,1.95,1.00,1.68*1D
$GPGSV,3,1,11,26,61,039,28,16,58,313,34,27,50,223,22,31,45,132,30*77
$GPGSV,3,2,11,04,34,285,25,18,31,079,26,08,18,224,30,09,13,315,22*78
$GPGSV,3,3,11,29,03,042,19,193,,,,43,,,31*71
$GLGSV,1,1,00*65
$GPRMC,074959.800,A,3606.7682,N,13940.2106,E,0.09,105.18,060122,,,A*61
$GPVTG,105.18,T,,M,0.09,N,0.17,K,A*3F
$GPGGA,074959.900,3606.7682,N,13940.2106,E,1,8,1.00,7.3,M,39.0,M,,*56
$GPGLL,3606.7682,N,13940.2106,E,074959.900,A,A*54
$GPGSA,A,3,31,27,16,08,09,18,26,04,,,,,1.95,1.00,1.68*09
$GLGSA,A,3,,,,,,,,,,,,,1.95,1.00,1.68*1D
$GPGSV,3,1,11,26,61,039,27,16,58,313,34,27,50,223,22,31,45,132,30*78
$GPGSV,3,2,11,04,34,285,25,18,31,079,26,08,18,224,30,09,13,315,22*78
$GPGSV,3,3,11,29,03,042,19,193,,,,43,,,31*71
$GLGSV,1,1,00*65
$GPRMC,074959.900,A,3606.7682,N,13940.2106,E,0.09,105.18,060122,,,A*60
$GPVTG,105.18,T,,M,0.09,N,0.17,K,A*3F
$GPGGA,075000.000,3606.7682,N,13940.2106,E,1,8,1.00,7.3,M,39.0,M,,*5B
$GPGLL,3606.7682,N,13940.2106,E,075000.000,A,A*59
$GPGSA,A,3,31,27,16,08,09,18,26,04,,,,,1.95,1.00,1.68*09
$GLGSA,A,3,,,,,,,,,,,,,1.95,1.00,1.68*1D
$GPGSV,3,1,11,26,61,039,27,16,58,313,34,27,50,223,22,31,45,132,30*78
$GPGSV,3,2,11,04,34,285,25,18,31,079,26,08,18,224,30,09,13,315,22*78
$GPGSV,3,3,11,29,03,042,19,193,,,,43,,,31*71
$GLGSV,1,1,00*65
$GPRMC,075000.000,A,3606.7682,N,13940.2106,E,0.09,105.18,060122,,,A*6D
$GPVTG,105.18,T,,M,0.09,N,0.17,K,A*3F
$GPGGA,075000.100,3606.7681,N,13940.2106,E,1,8,1.00,7.3,M,39.0,M,,*59
$GPGLL,3606.7681,N,13940.2106,E,075000.100,A,A*5B
$GPGSA,A,3,31,27,16,08,09,18,26,04,,,,,1.95,1.00,1.68*09
$GLGSA,A,3,,,,,,,,,,,,,1.95,1.00,1.68*1D
$GPGSV,3,1,11,26,61,039,27,16,58,313,34,27,50,223,22,31,45,132,30*78
$GPGSV,3,2,11,04,34,285,25,18,31,079,26,08,18,224,30,09,13,315,22*78
$GPGSV,3,3,11,29,03,042,19,193,,,,43,,,31*71
$GLGSV,1,1,00*65
$GPRMC,075000.100,A,3606.7681,N,13940.2106,E,0.09,105.18,060122,,,A*6F
$GPVTG,105.18,T,,M,0.09,N,0.17,K,A*3F
$GPGGA,075000.200,3606.7681,N,13940.2106,E,1,8,1.00,7.3,M,39.0,M,,*5A
$GPGLL,3606.7681,N,13940.2106,E,075000.200,A,A*58
$GPGSA,A,3,31,27,16,08,09,18,26,04,,,,,1.95,1.00,1.68*09
$GLGSA,A,3,,,,,,,,,,,,,1.95,1.00,1.68*1D
$GPGSV,3,1,11,26,61,039,27,16,58,313,34,27,50,223,22,31,45,132,30*78
$GPGSV,3,2,11,04,34,285,25,18,31,079,26,08,18,224,30,09,13,315,22*78
$GPGSV,3,3,11,29,03,042,19,193,,,,43,,,31*71
$GLGSV,1,1,00*65
$GPRMC,075000.200,A,3606.7681,N,13940.2106,E,0.09,105.18,060122,,,A*6C
$GPVTG,105.18,T,,M,0.09,N,0.17,K,A*3F
$GPGGA,075000.300,3606.7681,N,13940.2106,E,1,8,1.00,7.3,M,39.0,M,,*5B
$GPGLL,3606.7681,N,13940.2106,E,075000.300,A,A*59
$GPGSA,A,3,31,27,16,08,09,18,26,04,,,,,1.95,1.00,1.68*09
$GLGSA,A,3,,,,,,,,,,,,,1.95,1.00,1.68*1D
$GPGSV,3,1,11,26,61,039,27,16,58,313,34,27,50,223,22,31,45,132,30*78
$GPGSV,3,2,11,04,34,285,25,18,31,079,26,08,18,224,30,09,13,315,22*78
$GPGSV,3,3,11,29,03,042,19,193,,,,43,,,31*71
$GLGSV,1,1,00*65
$GPRMC,075000.300,A,3606.7681,N,13940.2106,E,0.09,105.18,060122,,,A*6D
$GPVTG,105.18,T,,M,0.09,N,0.17,K,A*3F
$GPGGA,075000.400,3606.7681,N,13940.2106,E,1,8,1.00,7.3,M,39.0,M,,*5C
$GPGLL,3606.7681,N,13940.2106,E,075000.400,A,A*5E
$GPGSA,A,3,31,27,16,08,09,18,26,04,,,,,1.95,1.00,1.68*09
$GLGSA,A,3,,,,,,,,,,,,,1.95,1.00,1.68*1D
$GPGSV,3,1,11,26,61,039,27,16,58,313,34,27,50,223,22,31,45,132,30*78
$GPGSV,3,2,11,04,34,285,25,18,31,079,26,08,18,224,30,09,13,315,22*78
$GPGSV,3,3,11,29,03,042,19,193,,,,43,,,31*71
$GLGSV,1,1,00*65
$GPRMC,075000.400,A,3606.7681,N,13940.2106,E,0.09,105.18,060122,,,A*6A
$GPVTG,105.18,T,,M,0.09,N,0.18,K,A*30
$GPGGA,075000.500,3606.7681,N,13940.2106,E,1,8,1.00,7.3,M,39.0,M,,*5D
$GPGLL,3606.7681,N,13940.2106,E,075000.500,A,A*5F
$GPGSA,A,3,31,27,16,08,09,18,26,04,,,,,1.95,1.00,1.68*09
$GLGSA,A,3,,,,,,,,,,,,,1.95,1.00,1.68*1D
$GPGSV,3,1,11,26,61,039,27,16,58,313,34,27,50,223,22,31,45,132,30*78
$GPGSV,3,2,11,04,34,285,26,18,31,079,26,08,18,224,30,09,13,315,22*7B
$GPGSV,3,3,11,29,03,042,19,193,,,,43,,,31*71
$GLGSV,1,1,00*65
$GPRMC,075000.500,A,3606.7681,N,13940.2106,E,0.09,105.18,060122,,,A*6B
$GPVTG,105.18,T,,M,0.09,N,0.18,K,A*30
$GPGGA,075000.600,3606.7681,N,13940.2106,E,1,8,1.00,7.3,M,39.0,M,,*5E
$GPGLL,3606.7681,N,13940.2106,E,075000.600,A,A*5C
$GPGSA,A,3,31,27,16,08,09,18,26,04,,,,,1.95,1.00,1.68*09
$GLGSA,A,3,,,,,,,,,,,,,1.95,1.00,1.68*1D
$GPGSV,3,1,11,26,61,039,27,16,58,313,34,27,50,223,22,31,45,132,30*78
$GPGSV,3,2,11,04,34,285,26,18,31,079,26,08,18,224,30,09,13,315,22*7B
$GPGSV,3,3,11,29,03,042,19,193,,,,43,,,31*71
$GLGSV,1,1,00*65
$GPRMC,075000.600,A,3606.7681,N,13940.2106,E,0.10,105.18,060122,,,A*60
$GPVTG,105.18,T,,M,0.10,N,0.18,K,A*38
$GPGGA,075000.700,3606.7681,N,13940.2106,E,1,8,1.00,7.3,M,39.0,M,,*5F
$GPGLL,3606.7681,N,13940.2106,E,075000.700,A,A*5D
$GPGSA,A,3,31,27,16,08,09,18,26,04,,,,,1.95,1.00,1.68*09
$GLGSA,A,3,,,,,,,,,,,,,1.95,1.00,1.68*1D
$GPGSV,3,1,11,26,61,039,27,16,58,313,34,27,50,223,22,31,45,132,30*78
$GPGSV,3,2,11,04,34,285,26,18,31,079,26,08,18,224,30,09,13,315,22*7B
$GPGSV,3,3,11,29,03,042,19,193,,,,43,,,31*71
$GLGSV,1,1,00*65
$GPRMC,075000.700,A,3606.7681,N,13940.2106,E,0.10,105.18,060122,,,A*61
$GPVTG,105.18,T,,M,0.10,N,0.18,K,A*38
$GPGGA,075000.800,3606.7680,N,13940.2107,E,1,8,1.00,7.3,M,39.0,M,,*50
$GPGLL,3606.7680,N,13940.2107,E,075000.800,A,A*52
$GPGSA,A,3,31,27,16,08,09,18,26,04,,,,,1.95,1.00,1.68*09
$GLGSA,A,3,,,,,,,,,,,,,1.95,1.00,1.68*1D
$GPGSV,3,1,11,26,61,039,27,16,58,313,34,27,50,223,22,31,45,132,30*78
$GPGSV,3,2,11,04,34,285,26,18,31,079,26,08,18,224,30,09,13,315,22*7B
$GPGSV,3,3,11,29,03,042,19,193,,,,43,,,31*71
$GLGSV,1,1,00*65
$GPRMC,075000.800,A,3606.7680,N,13940.2107,E,0.10,105.18,060122,,,A*6E
$GPVTG,105.18,T,,M,0.10,N,0.18,K,A*38
$GPGGA,075000.900,3606.7680,N,13940.2107,E,1,8,1.00,7.3,M,39.0,M,,*51
$GPGLL,3606.7680,N,13940.2107,E,075000.900,A,A*53
$GPGSA,A,3,31,27,16,08,09,18,26,04,,,,,1.95,1.00,1.68*09
$GLGSA,A,3,,,,,,,,,,,,,1.95,1.00,1.68*1D
$GPGSV,3,1,11,26,61,039,27,16,58,313,35,27,50,223,22,31,45,132,30*79
$GPGSV,3,2,11,04,34,285,26,18,31,079,26,08,18,224,30,09,13,315,22*7B
$GPGSV,3,3,11,29,03,042,19,193,,,,43,,,31*71
$GLGSV,1,1,00*65
$GPRMC,075000.900,A,3606.7680,N,13940.2107,E,0.10,105.18,060122,,,A*6F
$GPVTG,105.18,T,,M,0.10,N,0.18,K,A*38
$GPGGA,075001.000,3606.7680,N,13940.2107,E,1,8,1.00,7.3,M,39.0,M,,*59
$GPGLL,3606.7680,N,13940.2107,E,075001.000,A,A*5B
$GPGSA,A,3,31,27,16,08,09,18,26,04,,,,,1.95,1.00,1.68*09
$GLGSA,A,3,,,,,,,,,,,,,1.95,1.00,1.68*1D
$GPGSV,3,1,11,26,61,039,27,16,58,313,35,27,50,223,22,31,45,132,30*79
$GPGSV,3,2,11,04,34,285,26,18,31,079,26,08,18,224,30,09,13,315,22*7B
$GPGSV,3,3,11,29,03,042,19,193,,,,43,,,31*71
$GLGSV,1,1,00*65
$GPRMC,075001.000,A,3606.7680,N,13940.2107,E,0.10,105.18,060122,,,A*67
$GPVTG,105.18,T,,M,0.10,N,0.18,K,A*38
$GPGGA,075001.100,3606.7680,N,13940.2107,E,1,8,1.00,7.3,M,39.0,M,,*58
$GPGLL,3606.7680,N,13940.2107,E,075001.100,A,A*5A
$GPGSA,A,3,31,27,16,08,09,18,26,04,,,,,1.95,1.00,1.68*09
$GLGSA,A,3,,,,,,,,,,,,,1.95,1.00,1.68*1D
$GPGSV,3,1,11,26,61,039,27,16,58,313,35,27,50,223,22,31,45,132,30*79
$GPGSV,3,2,11,04,34,285,26,18,31,079,26,08,18,224,30,09,13,315,22*7B
$GPGSV,3,3,11,29,03,042,19,193,,,,43,,,31*71
$GLGSV,1,1,00*65
$GPRMC,075001.100,A,3606.7680,N,13940.2107,E,0.10,105.18,060122,,,A*66
$GPVTG,105.18,T,,M,0.10,N,0.18,K,A*38
$GPGGA,075001.200,3606.7680,N,13940.2107,E,1,8,1.00,7.3,M,39.0,M,,*5B
$GPGLL,3606.7680,N,13940.2107,E,075001.200,A,A*59
$GPGSA,A,3,31,27,16,08,09,18,26,04,,,,,1.95,1.00,1.68*09
$GLGSA,A,3,,,,,,,,,,,,,1.95,1.00,1.68*1D
$GPGSV,3,1,11,26,61,039,27,16,58,313,35,27,50,223,22,31,45,132,30*79
$GPGSV,3,2,11,04,34,285,26,18,31,079,26,08,18,224,30,09,13,315,22*7B
$GPGSV,3,3,11,29,03,042,18,193,,,,43,,,31*70
$GLGSV,1,1,00*65
$GPRMC,075001.200,A,3606.7680,N,13940.2107,E,0.10,105.18,060122,,,A*65
$GPVTG,105.18,T,,M,0.10,N,0.18,K,A*38
$GPGGA,075001.300,3606.7680,N,13940.2107,E,1,8,1.00,7.3,M,39.0,M,,*5A
$GPGLL,3606.7680,N,13940.2107,E,075001.300,A,A*58
$GPGSA,A,3,31,27,16,08,09,18,26,04,,,,,1.95,1.00,1.68*09
$GLGSA,A,3,,,,,,,,,,,,,1.95,1.00,1.68*1D
$GPGSV,3,1,11,26,61,039,27,16,58,313,35,27,50,223,22,31,45,132,30*79
$GPGSV,3,2,11,04,34,285,26,18,31,079,26,08,18,224,30,09,13,315,22*7B
$GPGSV,3,3,11,29,03,042,18,193,,,,43,,,31*70
$GLGSV,1,1,00*65
$GPRMC,075001.300,A,3606.7680,N,13940.2107,E,0.10,105.18,060122,,,A*64
$GPVTG,105.18,T,,M,0.10,N,0.18,K,A*38
$GPGGA,075001.400,3606.7680,N,13940.2107,E,1,8,1.00,7.3,M,39.0,M,,*5D
$GPGLL,3606.7680,N,13940.2107,E,075001.400,A,A*5F
$GPGSA,A,3,31,27,16,08,09,18,26,04,,,,,1.95,1.00,1.68*09
$GLGSA,A,3,,,,,,,,,,,,,1.95,1.00,1.68*1D
$GPGSV,3,1,11,26,61,039,27,16,58,313,35,27,50,223,22,31,45,132,30*79
$GPGSV,3,2,11,04,34,285,26,18,31,079,26,08,18,224,30,09,13,315,22*7B
$GPGSV,3,3,11,29,03,042,18,193,,,,43,,,31*70
$GLGSV,1,1,00*65
$GPRMC,075001.400,A,3606.7680,N,13940.2107,E,0.10,105.18,060122,,,A*63
$GPVTG,105.18,T,,M,0.10,N,0.19,K,A*39
$GPGGA,075001.500,3606.7680,N,13940.2107,E,1,8,1.00,7.3,M,39.0,M,,*5C
$GPGLL,3606.7680,N,13940.2107,E,075001.500,A,A*5E
$GPGSA,A,3,31,27,16,08,09,18,26,04,,,,,1.95,1.00,1.68*09
$GLGSA,A,3,,,,,,,,,,,,,1.95,1.00,1.68*1D
$GPGSV,3,1,11,26,61,039,27,16,58,313,35,27,50,223,22,31,45,132,30*79
$GPGSV,3,2,11,04,34,285,26,18,31,079,26,08,18,224,30,09,13,315,22*7B
$GPGSV,3,3,11,29,03,042,18,193,,,,43,,,30*71
$GLGSV,1,1,00*65
$GPRMC,075001.500,A,3606.7680,N,13940.2107,E,0.10,105.18,060122,,,A*62
$GPVTG,105.18,T,,M,0.10,N,0.19,K,A*39
$GPGGA,075001.600,3606.7679,N,13940.2107,E,1,8,1.00,7.3,M,39.0,M,,*59
$GPGLL,3606.7679,N,13940.2107,E,075001.600,A,A*5B
$GPGSA,A,3,31,27,16,08,09,18,26,04,,,,,1.95,1.00,1.68*09
$GLGSA,A,3,,,,,,,,,,,,,1.95,1.00,1.68*1D
$GPGSV,3,1,11,26,61,039,27,16,58,313,35,27,50,223,22,31,45,132,30*79
$GPGSV,3,2,11,04,34,285,25,18,31,079,26,08,18,224,30,09,13,315,22*78
$GPGSV,3,3,11,29,03,042,18,193,,,,43,,,30*71
$GLGSV,1,1,00*65
$GPRMC,075001.600,A,3606.7679,N,13940.2107,E,0.10,105.18,060122,,,A*67
$GPVTG,105.18,T,,M,0.10,N,0.19,K,A*39
$GPGGA,075001.700,3606.7679,N,13940.2107,E,1,8,1.00,7.3,M,39.0,M,,*58
$GPGLL,3606.7679,N,13940.2107,E,075001.700,A,A*5A
$GPGSA,A,3,31,27,16,08,09,18,26,04,,,,,1.95,1.00,1.68*09
$GLGSA,A,3,,,,,,,,,,,,,1.95,1.00,1.68*1D
$GPGSV,3,1,11,26,61,039,27,16,58,313,35,27,50,223,22,31,45,132,30*79
$GPGSV,3,2,11,04,34,285,25,18,31,079,26,08,18,224,30,09,13,315,22*78
$GPGSV,3,3,11,29,03,042,18,193,,,,43,,,30*71
$GLGSV,1,1,00*65
$GPRMC,075001.700,A,3606.7679,N,13940.2107,E,0.11,105.18,060122,,,A*67
$GPVTG,105.18,T,,M,0.11,N,0.19,K,A*38
$GPGGA,075001.800,3606.7679,N,13940.2107,E,1,8,1.00,7.3,M,39.0,M,,*57
$GPGLL,3606.7679,N,13940.2107,E,075001.800,A,A*55
$GPGSA,A,3,31,27,16,08,09,18,26,04,,,,,1.95,1.00,1.68*09
$GLGSA,A,3,,,,,,,,,,,,,1.95,1.00,1.68*1D
$GPGSV,3,1,11,26,61,039,27,16,58,313,35,27,50,223,22,31,45,132,30*79
$GPGSV,3,2,11,04,34,285,25,18,31,079,26,08,18,224,30,09,13,315,22*78
$GPGSV,3,3,11,29,03,042,18,193,,,,43,,,30*71
$GLGSV,1,1,00*65
$GPRMC,075001.800,A,3606.7679,N,13940.2107,E,0.11,105.18,060122,,,A*68
$GPVTG,105.18,T,,M,0.11,N,0.20,K,A*32
$GPGGA,075001.900,3606.7679,N,13940.2107,E,1,8,1.00,7.3,M,39.0,M,,*56
$GPGLL,3606.7679,N,13940.2107,E,075001.900,A,A*54
$GPGSA,A,3,31,27,16,08,09,18,26,04,,,,,1.95,1.00,1.68*09
$GLGSA,A,3,,,,,,,,,,,,,1.95,1.00,1.68*1D
$GPGSV,3,1,11,26,61,039,27,16,58,313,35,27,50,223,22,31,45,132,30*79
$GPGSV,3,2,11,04,34,285,25,18,31,079,26,08,18,224,30,09,13,315,22*78
$GPGSV,3,3,11,29,03,042,18,193,,,,43,,,30*71
$GLGSV,1,1,00*65
$GPRMC,075001.900,A,3606.7679,N,13940.2107,E,0.11,105.18,060122,,,A*69
$GPVTG,105.18,T,,M,0.11,N,0.20,K,A*32
$GPGGA,075002.000,3606.7679,N,13940.2107,E,1,8,1.00,7.2,M,39.0,M,,*5D
$GPGLL,3606.7679,N,13940.2107,E,075002.000,A,A*5E
$GPGSA,A,3,31,27,16,08,09,18,26,04,,,,,1.95,1.00,1.68*09
$GLGSA,A,3,,,,,,,,,,,,,1.95,1.00,1.68*1D
$GPGSV,3,1,11,26,61,039,27,16,58,313,35,27,50,223,22,31,45,132,30*79
$GPGSV,3,2,11,04,34,285,25,18,31,079,26,08,18,224,30,09,13,315,22*78
$GPGSV,3,3,11,29,03,042,18,193,,,,43,,,30*71
$GLGSV,1,1,00*65
$GPRMC,075002.000,A,3606.7679,N,13940.2107,E,0.11,105.18,060122,,,A*63
$GPVTG,105.18,T,,M,0.11,N,0.20,K,A*32
$GPGGA,075002.100,3606.7678,N,13940.2107,E,1,8,1.00,7.2,M,39.0,M,,*5D
$GPGLL,3606.7678,N,13940.2107,E,075002.100,A,A*5E
$GPGSA,A,3,31,27,16,08,09,18,26,04,,,,,1.95,1.00,1.68*09
$GLGSA,A,3,,,,,,,,,,,,,1.95,1.00,1.68*1D
$GPGSV,3,1,11,26,61,039,27,16,58,313,35,27,50,223,22,31,45,132,30*79
$GPGSV,3,2,11,04,34,285,25,18,31,079,26,08,18,224,30,09,13,315,22*78
$GPGSV,3,3,11,29,03,042,18,193,,,,43,,,30*71
$GLGSV,1,1,00*65
$GPRMC,075002.100,A,3606.7678,N,13940.2107,E,0.11,105.18,060122,,,A*63
$GPVTG,105.18,T,,M,0.11,N,0.20,K,A*32
$GPGGA,075002.200,3606.7678,N,13940.2107,E,1,8,1.00,7.2,M,39.0,M,,*5E
$GPGLL,3606.7678,N,13940.2107,E,075002.200,A,A*5D
$GPGSA,A,3,31,27,16,08,09,18,26,04,,,,,1.95,1.00,1.68*09
$GLGSA,A,3,,,,,,,,,,,,,1.95,1.00,1.68*1D
$GPGSV,3,1,11,26,61,039,27,16,58,313,35,27,50,223,21,31,45,132,30*7A
$GPGSV,3,2,11,04,34,285,25,18,31,079,26,08,18,224,31,09,13,315,22*79
$GPGSV,3,3,11,29,03,042,18,193,,,,43,,,30*71
$GLGSV,1,1,00*65
$GPRMC,075002.200,A,3606.7678,N,13940.2107,E,0.11,105.18,060122,,,A*60
$GPVTG,105.18,T,,M,0.11,N,0.20,K,A*32
$GPGGA,075002.300,3606.7678,N,13940.2107,E,1,8,1.00,7.2,M,39.0,M,,*5F
$GPGLL,3606.7678,N,13940.2107,E,075002.300,A,A*5C
$GPGSA,A,3,31,27,16,08,09,18,26,04,,,,,1.95,1.00,1.68*09
$GLGSA,A,3,,,,,,,,,,,,,1.95,1.00,1.68*1D
$GPGSV,3,1,11,26,61,039,27,16,58,313,35,27,50,223,21,31,45,132,30*7A
$GPGSV,3,2,11,04,34,285,25,18,31,079,26,08,18,224,31,09,13,315,22*79
$GPGSV,3,3,11,29,03,042,18,193,,,,43,,,30*71
$GLGSV,1,1,00*65
$GPRMC,075002.300,A,3606.7678,N,13940.2107,E,0.11,105.18,060122,,,A*61
$GPVTG,105.18,T,,M,0.11,N,0.21,K,A*33
$GPGGA,075002.400,3606.7678,N,13940.2107,E,1,8,1.00,7.2,M,39.0,M,,*58
$GPGLL,3606.7678,N,13940.2107,E,075002.400,A,A*5B
$GPGSA,A,3,31,27,16,08,09,18,26,04,,,,,1.95,1.00,1.68*09
$GLGSA,A,3,,,,,,,,,,,,,1.95,1.00,1.68*1D
$GPGSV,3,1,11,26,61,039,27,16,58,313,35,27,50,223,21,31,45,132,30*7A
$GPGSV,3,2,11,04,34,285,25,18,31,079,26,08,18,224,31,09,13,315,22*79
$GPGSV,3,3,11,29,03,042,18,193,,,,43,,,30*71
$GLGSV,1,1,00*65
$GPRMC,075002.400,A,3606.7678,N,13940.2107,E,0.11,105.18,060122,,,A*66
$GPVTG,105.18,T,,M,0.11,N,0.21,K,A*33
$GPGGA,075002.500,3606.7678,N,13940.2107,E,1,8,1.00,7.2,M,39.0,M,,*59
$GPGLL,3606.7678,N,13940.2107,E,075002.500,A,A*5A
$GPGSA,A,3,31,27,16,08,09,18,26,04,,,,,1.95,1.00,1.68*09
$GLGSA,A,3,,,,,,,,,,,,,1.95,1.00,1.68*1D
$GPGSV,3,1,11,26,61,039,27,16,58,313,35,27,50,223,21,31,45,132,30*7A
$GPGSV,3,2,11,04,34,285,25,18,31,079,26,08,18,224,31,09,13,315,22*79
$GPGSV,3,3,11,29,03,042,18,193,,,,43,,,30*71
$GLGSV,1,1,00*65
$GPRMC,075002.500,A,3606.7678,N,13940.2107,E,0.11,105.18,060122,,,A*67
$GPVTG,105.18,T,,M,0.11,N,0.20,K,A*32
$GPGGA,075002.600,3606.7678,N,13940.2107,E,1,8,1.00,7.2,M,39.0,M,,*5A
$GPGLL,3606.7678,N,13940.2107,E,075002.600,A,A*59
$GPGSA,A,3,31,27,16,08,09,18,26,04,,,,,1.95,1.00,1.68*09
$GLGSA,A,3,,,,,,,,,,,,,1.95,1.00,1.68*1D
$GPGSV,3,1,11,26,61,039,26,16,58,313,35,27,50,223,21,31,45,132,30*7B
$GPGSV,3,2,11,04,34,285,25,18,31,079,26,08,18,224,31,09,13,315,22*79
$GPGSV,3,3,11,29,03,042,18,193,,,,43,,,31*70
$GLGSV,1,1,00*65
$GPRMC,075002.600,A,3606.7678,N,13940.2107,E,0.11,105.18,060122,,,A*64
$GPVTG,105.18,T,,M,0.11,N,0.20,K,A*32
$GPGGA,075002.700,3606.7678,N,13940.2107,E,1,8,1.00,7.1,M,39.0,M,,*58
$GPGLL,3606.7678,N,13940.2107,E,075002.700,A,A*58
$GPGSA,A,3,31,27,16,08,09,18,26,04,,,,,1.95,1.00,1.68*09
$GLGSA,A,3,,,,,,,,,,,,,1.95,1.00,1.68*1D
$GPGSV,3,1,11,26,61,039,26,16,58,313,35,27,50,223,21,31,45,132,30*7B
$GPGSV,3,2,11,04,34,285,25,18,31,079,26,08,18,224,31,09,13,315,22*79
$GPGSV,3,3,11,29,03,042,18,193,,,,43,,,31*70
$GLGSV,1,1,00*65
$GPRMC,075002.700,A,3606.7678,N,13940.2107,E,0.11,105.18,060122,,,A*65
$GPVTG,105.18,T,,M,0.11,N,0.20,K,A*32
$GPGGA,075002.800,3606.7678,N,13940.2107,E,1,8,1.00,7.1,M,39.0,M,,*57
$GPGLL,3606.7678,N,13940.2107,E,075002.800,A,A*57
$GPGSA,A,3,31,27,16,08,09,18,26,04,,,,,1.95,1.00,1.68*09
$GLGSA,A,3,,,,,,,,,,,,,1.95,1.00,1.68*1D
$GPGSV,3,1,11,26,61,039,26,16,58,313,35,27,50,223,21,31,45,132,30*7B
$GPGSV,3,2,11,04,34,285,25,18,31,079,26,08,18,224,31,09,13,315,22*79
$GPGSV,3,3,11,29,03,042,18,193,,,,43,,,31*70
$GLGSV,1,1,00*65
$GPRMC,075002.800,A,3606.7678,N,13940.2107,E,0.11,105.18,060122,,,A*6A
$GPVTG,105.18,T,,M,0.11,N,0.20,K,A*32
$GPGGA,075002.900,3606.7678,N,13940.2107,E,1,8,1.00,7.1,M,39.0,M,,*56
$GPGLL,3606.7678,N,13940.2107,E,075002.900,A,A*56
$GPGSA,A,3,31,27,16,08,09,18,26,04,,,,,1.95,1.00,1.68*09
$GLGSA,A,3,,,,,,,,,,,,,1.95,1.00,1.68*1D
$GPGSV,3,1,11,26,61,039,26,16,58,313,35,27,50,223,21,31,45,132,30*7B
$GPGSV,3,2,11,04,34,285,25,18,31,079,26,08,18,224,31,09,13,315,22*79
$GPGSV,3,3,11,29,03,042,18,193,,,,43,,,31*70
$GLGSV,1,1,00*65
$GPRMC,075002.900,A,3606.7678,N,13940.2107,E,0.11,105.18,060122,,,A*6B
$GPVTG,105.18,T,,M,0.11,N,0.20,K,A*32
$GPGGA,075003.000,3606.7678,N,13940.2107,E,1,8,1.00,7.1,M,39.0,M,,*5E
$GPGLL,3606.7678,N,13940.2107,E,075003.000,A,A*5E
$GPGSA,A,3,31,27,16,08,09,18,26,04,,,,,1.95,1.00,1.68*09
$GLGSA,A,3,,,,,,,,,,,,,1.95,1.00,1.68*1D
$GPGSV,3,1,11,26,61,039,26,16,58,313,35,27,50,223,21,31,45,132,30*7B
$GPGSV,3,2,11,04,34,285,25,18,31,079,26,08,18,224,31,09,13,315,22*79
$GPGSV,3,3,11,29,03,042,18,193,,,,43,,,31*70
$GLGSV,1,1,00*65
$GPRMC,075003.000,A,3606.7678,N,13940.2107,E,0.11,105.18,060122,,,A*63
$GPVTG,105.18,T,,M,0.11,N,0.20,K,A*32
$GPGGA,075003.100,3606.7678,N,13940.2107,E,1,8,1.00,7.1,M,39.0,M,,*5F
$GPGLL,3606.7678,N,13940.2107,E,075003.100,A,A*5F
$GPGSA,A,3,31,27,16,08,09,18,26,04,,,,,1.95,1.00,1.68*09
$GLGSA,A,3,,,,,,,,,,,,,1.95,1.00,1.68*1D
$GPGSV,3,1,11,26,61,039,26,16,58,313,35,27,50,223,21,31,45,132,30*7B
$GPGSV,3,2,11,04,34,285,25,18,31,079,26,08,18,224,31,09,13,315,22*79
$GPGSV,3,3,11,29,03,042,18,193,,,,43,,,31*70
$GLGSV,1,1,00*65
$GPRMC,075003.100,A,3606.7678,N,13940.2107,E,0.11,105.18,060122,,,A*62
$GPVTG,105.18,T,,M,0.11,N,0.20,K,A*32
$GPGGA,075003.200,3606.7677,N,13940.2107,E,1,8,1.00,7.1,M,39.0,M,,*53
$GPGLL,3606.7677,N,13940.2107,E,075003.200,A,A*53
$GPGSA,A,3,31,27,16,08,09,18,26,04,,,,,1.95,1.00,1.68*09
$GLGSA,A,3,,,,,,,,,,,,,1.95,1.00,1.68*1D
$GPGSV,3,1,11,26,61,039,26,16,58,313,35,27,50,223,21,31,45,132,30*7B
$GPGSV,3,2,11,04,34,285,25,18,31,079,26,08,18,224,31,09,13,315,22*79
$GPGSV,3,3,11,29,03,042,18,193,,,,43,,,31*70
$GLGSV,1,1,00*65
$GPRMC,075003.200,A,3606.7677,N,13940.2107,E,0.11,105.18,060122,,,A*6E
$GPVTG,105.18,T,,M,0.11,N,0.19,K,A*38
$GPGGA,075003.300,3606.7677,N,13940.2108,E,1,8,1.00,7.1,M,39.0,M,,*5D
$GPGLL,3606.7677,N,13940.2108,E,075003.300,A,A*5D
$GPGSA,A,3,31,27,16,08,09,18,26,04,,,,,1.95,1.00,1.68*09
$GLGSA,A,3,,,,,,,,,,,,,1.95,1.00,1.68*1D
$GPGSV,3,1,11,26,61,039,26,16,58,313,35,27,50,223,21,31,45,132,30*7B
$GPGSV,3,2,11,04,34,285,25,18,31,079,26,08,18,224,31,09,13,315,22*79
$GPGSV,3,3,11,29,03,042,18,193,,,,43,,,31*70
$GLGSV,1,1,00*65
$GPRMC,075003.300,A,3606.7677,N,13940.2108,E,0.10,105.18,060122,,,A*61
$GPVTG,105.18,T,,M,0.10,N,0.19,K,A*39
$GPGGA,075003.400,3606.7677,N,13940.2108,E,1,8,1.00,7.1,M,39.0,M,,*5A
$GPGLL,3606.7677,N,13940.2108,E,075003.400,A,A*5A
$GPGSA,A,3,31,27,16,08,09,18,26,04,,,,,1.95,1.00,1.68*09
$GLGSA,A,3,,,,,,,,,,,,,1.95,1.00,1.68*1D
$GPGSV,3,1,11,26,61,039,26,16,58,313,35,27,50,223,21,31,45,132,30*7B
$GPGSV,3,2,11,04,34,285,25,18,31,079,26,08,18,224,31,09,13,315,22*79
$GPGSV,3,3,11,29,03,042,18,193,,,,43,,,31*70
$GLGSV,1,1,00*65
$GPRMC,075003.400,A,3606.7677,N,13940.2108,E,0.10,105.18,060122,,,A*66
$GPVTG,105.18,T,,M,0.10,N,0.19,K,A*39
$GPGGA,075003.500,3606.7677,N,13940.2108,E,1,8,1.00,7.1,M,39.0,M,,*5B
$GPGLL,3606.7677,N,13940.2108,E,075003.500,A,A*5B
$GPGSA,A,3,31,27,16,08,09,18,26,04,,,,,1.95,1.00,1.68*09
$GLGSA,A,3,,,,,,,,,,,,,1.95,1.00,1.68*1D
$GPGSV,3,1,11,26,61,039,26,16,58,313,35,27,50,223,21,31,45,132,30*7B
$GPGSV,3,2,11,04,34,285,25,18,31,079,26,08,18,224,31,09,13,315,22*79
$GPGSV,3,3,11,29,03,042,18,193,,,,43,,,31*70
$GLGSV,1,1,00*65
$GPRMC,075003.500,A,3606.7677,N,13940.2108,E,0.10,105.18,060122,,,A*67
$GPVTG,105.18,T,,M,0.10,N,0.19,K,A*39
$GPGGA,075003.600,3606.7677,N,13940.2108,E,1,8,1.00,7.1,M,39.0,M,,*58
$GPGLL,3606.7677,N,13940.2108,E,075003.600,A,A*58
$GPGSA,A,3,31,27,16,08,09,18,26,04,,,,,1.95,1.00,1.68*09
$GLGSA,A,3,,,,,,,,,,,,,1.95,1.00,1.68*1D
$GPGSV,3,1,11,26,61,039,26,16,58,313,35,27,50,223,21,31,45,132,30*7B
$GPGSV,3,2,11,04,34,285,25,18,31,079,26,08,18,224,31,09,13,315,22*79
$GPGSV,3,3,11,29,03,042,18,193,,,,43,,,31*70
$GLGSV,1,1,00*65
$GPRMC,075003.600,A,3606.7677,N,13940.2108,E,0.10,105.18,060122,,,A*64
$GPVTG,105.18,T,,M,0.10,N,0.19,K,A*39
$GPGGA,075003.700,3606.7677,N,13940.2108,E,1,8,1.00,7.1,M,39.0,M,,*59
$GPGLL,3606.7677,N,13940.2108,E,075003.700,A,A*59
$GPGSA,A,3,31,27,16,08,09,18,26,04,,,,,1.95,1.00,1.68*09
$GLGSA,A,3,,,,,,,,,,,,,1.95,1.00,1.68*1D
$GPGSV,3,1,11,26,61,039,26,16,58,313,35,27,50,223,21,31,45,132,30*7B
$GPGSV,3,2,11,04,34,285,25,18,31,079,26,08,18,224,31,09,13,315,22*79
$GPGSV,3,3,11,29,03,042,18,193,,,,43,,,31*70
$GLGSV,1,1,00*65
$GPRMC,075003.700,A,3606.7677,N,13940.2108,E,0.10,105.18,060122,,,A*65
$GPVTG,105.18,T,,M,0.10,N,0.19,K,A*39
$GPGGA,075003.800,3606.7677,N,13940.2108,E,1,8,1.00,7.1,M,39.0,M,,*56
$GPGLL,3606.7677,N,13940.2108,E,075003.800,A,A*56
$GPGSA,A,3,31,27,16,08,09,18,26,04,,,,,1.95,1.00,1.68*09
$GLGSA,A,3,,,,,,,,,,,,,1.95,1.00,1.68*1D
$GPGSV,3,1,11,26,61,039,26,16,58,313,35,27,50,223,21,31,45,132,30*7B
$GPGSV,3,2,11,04,34,285,25,18,31,079,26,08,18,224,31,09,13,315,22*79
$GPGSV,3,3,11,29,03,042,18,193,,,,43,,,31*70
$GLGSV,1,1,00*65
$GPRMC,075003.800,A,3606.7677,N,13940.2108,E,0.10,105.18,060122,,,A*6A
$GPVTG,105.18,T,,M,0.10,N,0.19,K,A*39
$GPGGA,075003.900,3606.7677,N,13940.2108,E,1,8,1.00,7.1,M,39.0,M,,*57
$GPGLL,3606.7677,N,13940.2108,E,075003.900,A,A*57
$GPGSA,A,3,31,27,16,08,09,18,26,04,,,,,1.95,1.00,1.68*09
$GLGSA,A,3,,,,,,,,,,,,,1.95,1.00,1.68*1D
$GPGSV,3,1,11,26,61,039,26,16,58,313,35,27,50,223,21,31,45,132,30*7B
$GPGSV,3,2,11,04,34,285,24,18,31,079,26,08,18,224,31,09,13,315,22*78
$GPGSV,3,3,11,29,03,042,18,193,,,,43,,,31*70
$GLGSV,1,1,00*65
$GPRMC,075003.900,A,3606.7677,N,13940.2108,E,0.11,105.18,060122,,,A*6A
$GPVTG,105.18,T,,M,0.11,N,0.20,K,A*32
$GPGGA,075004.000,3606.7677,N,13940.2108,E,1,8,1.00,7.1,M,39.0,M,,*59
$GPGLL,3606.7677,N,13940.2108,E,075004.000,A,A*59
$GPGSA,A,3,31,27,16,08,09,18,26,04,,,,,1.95,1.00,1.68*09
$GLGSA,A,3,,,,,,,,,,,,,1.95,1.00,1.68*1D
$GPGSV,3,1,11,26,61,039,26,16,58,313,35,27,50,223,21,31,45,132,30*7B
$GPGSV,3,2,11,04,34,285,24,18,31,079,26,08,18,224,31,09,13,315,22*78
$GPGSV,3,3,11,29,03,042,18,193,,,,43,,,31*70
$GLGSV,1,1,00*65
$GPRMC,075004.000,A,3606.7677,N,13940.2108,E,0.11,105.18,060122,,,A*64
$GPVTG,105.18,T,,M,0.11,N,0.20,K,A*32
$GPGGA,075004.100,3606.7677,N,13940.2108,E,1,8,1.00,7.1,M,39.0,M,,*58
$GPGLL,3606.7677,N,13940.2108,E,075004.100,A,A*58
$GPGSA,A,3,31,27,16,08,09,18,26,04,,,,,1.95,1.00,1.68*09
$GLGSA,A,3,,,,,,,,,,,,,1.95,1.00,1.68*1D
$GPGSV,3,1,11,26,61,039,26,16,58,313,35,27,50,223,21,31,45,132,30*7B
$GPGSV,3,2,11,04,34,285,24,18,31,079,26,08,18,224,31,09,13,315,22*78
$GPGSV,3,3,11,29,03,042,18,193,,,,43,,,31*70
$GLGSV,1,1,00*65
$GPRMC,075004.100,A,3606.7677,N,13940.2108,E,0.11,105.18,060122,,,A*65
$GPVTG,105.18,T,,M,0.11,N,0.20,K,A*32
$GPGGA,075004.200,3606.7677,N,13940.2108,E,1,8,1.00,7.1,M,39.0,M,,*5B
$GPGLL,3606.7677,N,13940.2108,E,075004.200,A,A*5B
$GPGSA,A,3,31,27,16,08,09,18,26,04,,,,,1.95,1.00,1.68*09
$GLGSA,A,3,,,,,,,,,,,,,1.95,1.00,1.68*1D
$GPGSV,3,1,11,26,61,039,26,16,58,313,35,27,50,223,21,31,45,132,30*7B
$GPGSV,3,2,11,04,34,285,24,18,31,079,26,08,18,224,31,09,13,315,22*78
$GPGSV,3,3,11,29,03,042,18,193,,,,43,,,30*71
$GLGSV,1,1,00*65
$GPRMC,075004.200,A,3606.7677,N,13940.2108,E,0.11,105.18,060122,,,A*66
$GPVTG,105.18,T,,M,0.11,N,0.20,K,A*32
$GPGGA,075004.300,3606.7677,N,13940.2108,E,1,8,1.00,7.2,M,39.0,M,,*59
$GPGLL,3606.7677,N,13940.2108,E,075004.300,A,A*5A
$GPGSA,A,3,31,27,16,08,09,18,26,04,,,,,1.95,1.00,1.68*09
$GLGSA,A,3,,,,,,,,,,,,,1.95,1.00,1.68*1D
$GPGSV,3,1,11,26,61,039,26,16,58,313,35,27,50,223,21,31,45,132,30*7B
$GPGSV,3,2,11,04,34,285,24,18,31,079,26,08,18,224,31,09,13,315,22*78
$GPGSV,3,3,11,29,03,042,18,193,,,,43,,,30*71
$GLGSV,1,1,00*65
$GPRMC,075004.300,A,3606.7677,N,13940.2108,E,0.11,105.18,060122,,,A*67
$GPVTG,105.18,T,,M,0.11,N,0.20,K,A*32
$GPGGA,075004.400,3606.7677,N,13940.2109,E,1,8,1.00,7.2,M,39.0,M,,*5F
$GPGLL,3606.7677,N,13940.2109,E,075004.400,A,A*5C
$GPGSA,A,3,31,27,16,08,09,18,26,04,,,,,1.95,1.00,1.68*09
$GLGSA,A,3,,,,,,,,,,,,,1.95,1.00,1.68*1D
$GPGSV,3,1,11,26,61,039,26,16,58,313,35,27,50,223,21,31,45,132,30*7B
$GPGSV,3,2,11,04,34,285,24,18,31,079,26,08,18,224,31,09,13,315,22*78
$GPGSV,3,3,11,29,03,042,18,193,,,,43,,,30*71
$GLGSV,1,1,00*65
$GPRMC,075004.400,A,3606.7677,N,13940.2109,E,0.11,105.18,060122,,,A*61
$GPVTG,105.18,T,,M,0.11,N,0.20,K,A*32
$GPGGA,075004.500,3606.7677,N,13940.2109,E,1,8,1.00,7.2,M,39.0,M,,*5E
$GPGLL,3606.7677,N,13940.2109,E,075004.500,A,A*5D
$GPGSA,A,3,31,27,16,08,09,18,26,04,,,,,1.95,1.00,1.68*09
$GLGSA,A,3,,,,,,,,,,,,,1.95,1.00,1.68*1D
$GPGSV,3,1,11,26,61,039,26,16,58,313,35,27,50,223,21,31,45,132,30*7B
$GPGSV,3,2,11,04,34,285,24,18,31,079,26,08,18,224,31,09,13,315,22*78
$GPGSV,3,3,11,29,03,042,18,193,,,,43,,,30*71
$GLGSV,1,1,00*65
$GPRMC,075004.500,A,3606.7677,N,13940.2109,E,0.10,105.18,060122,,,A*61
$GPVTG,105.18,T,,M,0.10,N,0.19,K,A*39
$GPGGA,075004.600,3606.7677,N,13940.2109,E,1,8,1.00,7.2,M,39.0,M,,*5D
$GPGLL,3606.7677,N,13940.2109,E,075004.600,A,A*5E
$GPGSA,A,3,31,27,16,08,09,18,26,04,,,,,1.95,1.00,1.68*09
$GLGSA,A,3,,,,,,,,,,,,,1.95,1.00,1.68*1D
$GPGSV,3,1,11,26,61,039,26,16,58,313,35,27,50,223,21,31,45,132,30*7B
$GPGSV,3,2,11,04,34,285,24,18,31,079,26,08,18,224,31,09,13,315,22*78
$GPGSV,3,3,11,29,03,042,18,193,,,,43,,,30*71
$GLGSV,1,1,00*65
$GPRMC,075004.600,A,3606.7677,N,13940.2109,E,0.10,105.18,060122,,,A*62
$GPVTG,105.18,T,,M,0.10,N,0.19,K,A*39
$GPGGA,075004.700,3606.7677,N,13940.2109,E,1,8,1.00,7.2,M,39.0,M,,*5C
$GPGLL,3606.7677,N,13940.2109,E,075004.700,A,A*5F
$GPGSA,A,3,31,27,16,08,09,18,26,04,,,,,1.95,1.00,1.68*09
$GLGSA,A,3,,,,,,,,,,,,,1.95,1.00,1.68*1D
$GPGSV,3,1,11,26,61,039,26,16,58,313,35,27,50,223,21,31,45,132,30*7B
$GPGSV,3,2,11,04,34,285,24,18,31,079,26,08,18,224,31,09,13,315,22*78
$GPGSV,3,3,11,29,03,042,18,193,,,,43,,,30*71
$GLGSV,1,1,00*65
$GPRMC,075004.700,A,3606.7677,N,13940.2109,E,0.10,105.18,060122,,,A*63
$GPVTG,105.18,T,,M,0.10,N,0.19,K,A*39
$GPGGA,075004.800,3606.7677,N,13940.2109,E,1,8,1.00,7.2,M,39.0,M,,*53
$GPGLL,3606.7677,N,13940.2109,E,075004.800,A,A*50
$GPGSA,A,3,31,27,16,08,09,18,26,04,,,,,1.95,1.00,1.68*09
$GLGSA,A,3,,,,,,,,,,,,,1.95,1.00,1.68*1D
$GPGSV,3,1,11,26,61,039,26,16,58,313,35,27,50,223,21,31,45,132,30*7B
$GPGSV,3,2,11,04,34,285,24,18,31,079,26,08,18,224,31,09,13,315,22*78
$GPGSV,3,3,11,29,03,042,18,193,,,,43,,,30*71
$GLGSV,1,1,00*65
$GPRMC,075004.800,A,3606.7677,N,13940.2109,E,0.10,105.18,060122,,,A*6C
$GPVTG,105.18,T,,M,0.10,N,0.19,K,A*39
$GPGGA,075004.900,3606.7677,N,13940.2109,E,1,8,1.00,7.2,M,39.0,M,,*52
$GPGLL,3606.7677,N,13940.2109,E,075004.900,A,A*51
$GPGSA,A,3,31,27,16,08,09,18,26,04,,,,,1.95,1.00,1.68*09
$GLGSA,A,3,,,,,,,,,,,,,1.95,1.00,1.68*1D
$GPGSV,3,1,11,26,61,039,26,16,58,313,35,27,50,223,21,31,45,132,30*7B
$GPGSV,3,2,11,04,34,285,24,18,31,079,26,08,18,224,31,09,13,315,22*78
$GPGSV,3,3,11,29,03,042,18,193,,,,43,,,30*71
$GLGSV,1,1,00*65
$GPRMC,075004.900,A,3606.7677,N,13940.2109,E,0.10,105.18,060122,,,A*6D
$GPVTG,105.18,T,,M,0.10,N,0.18,K,A*38
$GPGGA,075005.000,3606.7677,N,13940.2109,E,1,8,1.00,7.2,M,39.0,M,,*5A
$GPGLL,3606.7677,N,13940.2109,E,075005.000,A,A*59
$GPGSA,A,3,31,27,16,08,09,18,26,04,,,,,1.95,1.00,1.68*09
$GLGSA,A,3,,,,,,,,,,,,,1.95,1.00,1.68*1D
$GPGSV,3,1,11,26,61,039,26,16,58,313,35,27,50,223,21,31,45,132,30*7B
$GPGSV,3,2,11,04,34,285,24,18,31,079,26,08,18,224,31,09,13,315,22*78
$GPGSV,3,3,11,29,03,042,18,193,,,,43,,,30*71
$GLGSV,1,1,00*65
$GPRMC,075005.000,A,3606.7677,N,13940.2109,E,0.10,105.18,060122,,,A*65
$GPVTG,105.18,T,,M,0.10,N,0.18,K,A*38
$GPGGA,075005.100,3606.7677,N,13940.2109,E,1,8,1.00,7.2,M,39.0,M,,*5B
$GPGLL,3606.7677,N,13940.2109,E,075005.100,A,A*58
$GPGSA,A,3,31,27,16,08,09,18,26,04,,,,,1.95,1.00,1.68*09
$GLGSA,A,3,,,,,,,,,,,,,1.95,1.00,1.68*1D
$GPGSV,3,1,11,26,61,039,26,16,58,313,35,27,50,223,21,31,45,132,30*7B
$GPGSV,3,2,11,04,34,285,24,18,31,079,26,08,18,224,31,09,13,315,22*78
$GPGSV,3,3,11,29,03,042,18,193,,,,43,,,30*71
$GLGSV,1,1,00*65
$GPRMC,075005.100,A,3606.7677,N,13940.2109,E,0.10,105.18,060122,,,A*64
$GPVTG,105.18,T,,M,0.10,N,0.18,K,A*38
$GPGGA,075005.200,3606.7677,N,13940.2109,E,1,8,1.00,7.2,M,39.0,M,,*58
$GPGLL,3606.7677,N,13940.2109,E,075005.200,A,A*5B
$GPGSA,A,3,31,27,16,08,09,18,26,04,,,,,1.95,1.00,1.68*09
$GLGSA,A,3,,,,,,,,,,,,,1.95,1.00,1.68*1D
$GPGSV,3,1,11,26,61,039,26,16,58,313,35,27,50,223,21,31,45,132,30*7B
$GPGSV,3,2,11,04,34,285,24,18,31,079,26,08,18,224,31,09,13,315,22*78
$GPGSV,3,3,11,29,03,042,18,193,,,,43,,,30*71
$GLGSV,1,1,00*65
$GPRMC,075005.200,A,3606.7677,N,13940.2109,E,0.10,105.18,060122,,,A*67
$GPVTG,105.18,T,,M,0.10,N,0.18,K,A*38
$GPGGA,075005.300,3606.7677,N,13940.2109,E,1,8,1.00,7.2,M,39.0,M,,*59
$GPGLL,3606.7677,N,13940.2109,E,075005.300,A,A*5A
$GPGSA,A,3,31,27,16,08,09,18,26,04,,,,,1.95,1.00,1.68*09
$GLGSA,A,3,,,,,,,,,,,,,1.95,1.00,1.68*1D
$GPGSV,3,1,11,26,61,039,26,16,58,313,35,27,50,223,21,31,45,132,30*7B
$GPGSV,3,2,11,04,34,285,24,18,31,079,26,08,18,224,31,09,13,315,22*78
$GPGSV,3,3,11,29,03,042,18,193,,,,43,,,30*71
$GLGSV,1,1,00*65
$GPRMC,075005.300,A,3606.7677,N,13940.2109,E,0.10,105.18,060122,,,A*66
$GPVTG,105.18,T,,M,0.10,N,0.18,K,A*38
$GPGGA,075005.400,3606.7677,N,13940.2109,E,1,8,1.00,7.2,M,39.0,M,,*5E
$GPGLL,3606.7677,N,13940.2109,E,075005.400,A,A*5D
$GPGSA,A,3,31,27,16,08,09,18,26,04,,,,,1.95,1.00,1.68*09
$GLGSA,A,3,,,,,,,,,,,,,1.95,1.00,1.68*1D
$GPGSV,3,1,11,26,61,039,26,16,58,313,35,27,50,223,21,31,45,132,30*7B
$GPGSV,3,2,11,04,34,285,24,18,31,079,26,08,18,224,31,09,13,315,22*78
$GPGSV,3,3,11,29,03,042,18,193,,,,43,,,30*71
$GLGSV,1,1,00*65
$GPRMC,075005.400,A,3606.7677,N,13940.2109,E,0.10,105.18,060122,,,A*61
$GPVTG,105.18,T,,M,0.10,N,0.18,K,A*38
$GPGGA,075005.500,3606.7677,N,13940.2109,E,1,8,1.00,7.2,M,39.0,M,,*5F
$GPGLL,3606.7677,N,13940.2109,E,075005.500,A,A*5C
$GPGSA,A,3,31,27,16,08,09,18,26,04,,,,,1.95,1.00,1.68*09
$GLGSA,A,3,,,,,,,,,,,,,1.95,1.00,1.68*1D
$GPGSV,3,1,11,26,61,039,26,16,58,313,35,27,50,223,21,31,45,132,30*7B
$GPGSV,3,2,11,04,34,285,24,18,31,079,26,08,18,224,31,09,13,315,22*78
$GPGSV,3,3,11,29,03,042,18,193,,,,43,,,30*71
$GLGSV,1,1,00*65
$GPRMC,075005.500,A,3606.7677,N,13940.2109,E,0.10,105.18,060122,,,A*60
$GPVTG,105.18,T,,M,0.10,N,0.18,K,A*38
$GPGGA,075005.600,3606.7677,N,13940.2110,E,1,8,1.00,7.2,M,39.0,M,,*54
$GPGLL,3606.7677,N,13940.2110,E,075005.600,A,A*57
$GPGSA,A,3,31,27,16,08,09,18,26,04,,,,,1.95,1.00,1.68*09
$GLGSA,A,3,,,,,,,,,,,,,1.95,1.00,1.68*1D
$GPGSV,3,1,11,26,61,039,26,16,58,313,35,27,50,223,21,31,45,132,30*7B
$GPGSV,3,2,11,04,34,285,24,18,31,079,26,08,18,224,31,09,13,315,22*78
$GPGSV,3,3,11,29,03,042,18,193,,,,43,,,30*71
$GLGSV,1,1,00*65
$GPRMC,075005.600,A,3606.7677,N,13940.2110,E,0.10,105.18,060122,,,A*6B
$GPVTG,105.18,T,,M,0.10,N,0.18,K,A*38
$GPGGA,075005.700,3606.7677,N,13940.2110,E,1,8,1.00,7.2,M,39.0,M,,*55
$GPGLL,3606.7677,N,13940.2110,E,075005.700,A,A*56
$GPGSA,A,3,31,27,16,08,09,18,26,04,,,,,1.95,1.00,1.68*09
$GLGSA,A,3,,,,,,,,,,,,,1.95,1.00,1.68*1D
$GPGSV,3,1,11,26,61,039,26,16,58,313,35,27,50,223,21,31,45,132,30*7B
$GPGSV,3,2,11,04,34,285,24,18,31,079,26,08,18,224,31,09,13,315,22*78
$GPGSV,3,3,11,29,03,042,18,193,,,,43,,,30*71
$GLGSV,1,1,00*65
$GPRMC,075005.700,A,3606.7677,N,13940.2110,E,0.09,105.18,060122,,,A*62
$GPVTG,105.18,T,,M,0.09,N,0.18,K,A*30
$GPGGA,075005.800,3606.7677,N,13940.2110,E,1,8,1.00,7.2,M,39.0,M,,*5A
$GPGLL,3606.7677,N,13940.2110,E,075005.800,A,A*59
$GPGSA,A,3,31,27,16,08,09,18,26,04,,,,,1.95,1.00,1.68*09
$GLGSA,A,3,,,,,,,,,,,,,1.95,1.00,1.68*1D
$GPGSV,3,1,11,26,61,039,26,16,58,313,35,27,50,223,21,31,45,132,30*7B
$GPGSV,3,2,11,04,34,285,24,18,31,079,26,08,18,224,31,09,13,315,22*78
$GPGSV,3,3,11,29,03,042,18,193,,,,43,,,30*71
$GLGSV,1,1,00*65
$GPRMC,075005.800,A,3606.7677,N,13940.2110,E,0.09,105.18,060122,,,A*6D
$GPVTG,105.18,T,,M,0.09,N,0.17,K,A*3F
$GPGGA,075005.900,3606.7677,N,13940.2110,E,1,8,1.00,7.2,M,39.0,M,,*5B
$GPGLL,3606.7677,N,13940.2110,E,075005.900,A,A*58
$GPGSA,A,3,31,27,16,08,09,18,26,04,,,,,1.95,1.00,1.68*09
$GLGSA,A,3,,,,,,,,,,,,,1.95,1.00,1.68*1D
$GPGSV,3,1,11,26,61,039,26,16,58,313,35,27,50,223,21,31,45,132,30*7B
$GPGSV,3,2,11,04,34,285,24,18,31,079,26,08,18,224,31,09,13,315,22*78
$GPGSV,3,3,11,29,03,042,19,193,,,,43,,,30*70
$GLGSV,1,1,00*65
$GPRMC,075005.900,A,3606.7677,N,13940.2110,E,0.09,105.18,060122,,,A*6C
$GPVTG,105.18,T,,M,0.09,N,0.17,K,A*3F
$GPGGA,075006.000,3606.7677,N,13940.2110,E,1,8,1.00,7.2,M,39.0,M,,*51
$GPGLL,3606.7677,N,13940.2110,E,075006.000,A,A*52
$GPGSA,A,3,31,27,16,08,09,18,26,04,,,,,1.95,1.00,1.68*09
$GLGSA,A,3,,,,,,,,,,,,,1.95,1.00,1.68*1D
$GPGSV,3,1,11,26,61,039,26,16,58,313,35,27,50,223,21,31,45,132,30*7B
$GPGSV,3,2,11,04,34,285,24,18,31,078,26,08,18,224,31,09,13,315,22*79
$GPGSV,3,3,11,29,03,042,19,193,,,,43,,,30*70
$GLGSV,1,1,00*65
$GPRMC,075006.000,A,3606.7677,N,13940.2110,E,0.09,105.18,060122,,,A*66
$GPVTG,105.18,T,,M,0.09,N,0.17,K,A*3F
$GPGGA,075006.100,3606.7677,N,13940.2110,E,1,8,1.00,7.2,M,39.0,M,,*50
$GPGLL,3606.7677,N,13940.2110,E,075006.100,A,A*53
$GPGSA,A,3,31,27,16,08,09,18,26,04,,,,,1.95,1.00,1.68*09
$GLGSA,A,3,,,,,,,,,,,,,1.95,1.00,1.68*1D
$GPGSV,3,1,11,26,61,039,26,16,58,313,35,27,50,223,21,31,45,132,30*7B
$GPGSV,3,2,11,04,34,285,24,18,31,078,26,08,18,224,31,09,13,315,22*79
$GPGSV,3,3,11,29,03,042,19,193,,,,43,,,30*70
$GLGSV,1,1,00*65
$GPRMC,075006.100,A,3606.7677,N,13940.2110,E,0.09,105.18,060122,,,A*67
$GPVTG,105.18,T,,M,0.09,N,0.17,K,A*3F
$GPGGA,075006.200,3606.7677,N,13940.2110,E,1,8,1.00,7.2,M,39.0,M,,*53
$GPGLL,3606.7677,N,13940.2110,E,075006.200,A,A*50
$GPGSA,A,3,31,27,16,08,09,18,26,04,,,,,1.95,1.00,1.68*09
$GLGSA,A,3,,,,,,,,,,,,,1.95,1.00,1.68*1D
$GPGSV,3,1,11,26,61,039,26,16,58,313,35,27,50,223,21,31,45,132,30*7B
$GPGSV,3,2,11,04,34,285,24,18,31,078,26,08,18,224,31,09,13,315,22*79
$GPGSV,3,3,11,29,03,042,19,193,,,,43,,,30*70
$GLGSV,1,1,00*65
$GPRMC,075006.200,A,3606.7677,N,13940.2110,E,0.09,105.18,060122,,,A*64
$GPVTG,105.18,T,,M,0.09,N,0.17,K,A*3F
$GPGGA,075006.300,3606.7677,N,13940.2110,E,1,8,1.00,7.2,M,39.0,M,,*52
$GPGLL,3606.7677,N,13940.2110,E,075006.300,A,A*51
$GPGSA,A,3,31,27,16,08,09,18,26,04,,,,,1.95,1.00,1.68*09
$GLGSA,A,3,,,,,,,,,,,,,1.95,1.00,1.68*1D
$GPGSV,3,1,11,26,61,039,26,16,58,313,35,27,50,223,20,31,45,132,30*7A
$GPGSV,3,2,11,04,34,285,24,18,31,078,26,08,18,224,31,09,13,315,22*79
$GPGSV,3,3,11,29,03,042,19,193,,,,43,,,30*70
$GLGSV,1,1,00*65
$GPRMC,075006.300,A,3606.7677,N,13940.2110,E,0.09,105.18,060122,,,A*65
$GPVTG,105.18,T,,M,0.09,N,0.17,K,A*3F
$GPGGA,075006.400,3606.7677,N,13940.2110,E,1,8,1.00,7.2,M,39.0,M,,*55
$GPGLL,3606.7677,N,13940.2110,E,075006.400,A,A*56
$GPGSA,A,3,31,27,16,08,09,18,26,04,,,,,1.95,1.00,1.68*09
$GLGSA,A,3,,,,,,,,,,,,,1.95,1.00,1.68*1D
$GPGSV,3,1,11,26,61,039,26,16,58,313,35,27,50,223,20,31,45,132,30*7A
$GPGSV,3,2,11,04,34,285,24,18,31,078,26,08,18,224,31,09,13,315,22*79
$GPGSV,3,3,11,29,03,042,19,193,,,,43,,,30*70
$GLGSV,1,1,00*65
$GPRMC,075006.400,A,3606.7677,N,13940.2110,E,0.09,105.18,060122,,,A*62
$GPVTG,105.18,T,,M,0.09,N,0.17,K,A*3F
$GPGGA,075006.500,3606.7677,N,13940.2110,E,1,8,1.00,7.2,M,39.0,M,,*54
$GPGLL,3606.7677,N,13940.2110,E,075006.500,A,A*57
$GPGSA,A,3,31,27,16,08,09,18,26,04,,,,,1.95,1.00,1.68*09
$GLGSA,A,3,,,,,,,,,,,,,1.95,1.00,1.68*1D
$GPGSV,3,1,11,26,61,039,26,16,58,313,35,27,50,223,20,31,45,132,30*7A
$GPGSV,3,2,11,04,34,285,24,18,31,078,26,08,18,224,31,09,13,315,22*79
$GPGSV,3,3,11,29,03,042,19,193,,,,43,,,30*70
$GLGSV,1,1,00*65
$GPRMC,075006.500,A,3606.7677,N,13940.2110,E,0.09,105.18,060122,,,A*63
$GPVTG,105.18,T,,M,0.09,N,0.17,K,A*3F
$GPGGA,075006.600,3606.7677,N,13940.2111,E,1,8,1.00,7.1,M,39.0,M,,*55
$GPGLL,3606.7677,N,13940.2111,E,075006.600,A,A*55
$GPGSA,A,3,31,27,16,08,09,18,26,04,,,,,1.95,1.00,1.68*09
$GLGSA,A,3,,,,,,,,,,,,,1.95,1.00,1.68*1D
$GPGSV,3,1,11,26,61,039,25,16,58,313,35,27,50,223,20,31,45,132,30*79
$GPGSV,3,2,11,04,34,285,24,18,31,078,26,08,18,224,31,09,13,315,22*79
$GPGSV,3,3,11,29,03,042,18,193,,,,43,,,30*71
$GLGSV,1,1,00*65
$GPRMC,075006.600,A,3606.7677,N,13940.2111,E,0.09,105.18,060122,,,A*61
$GPVTG,105.18,T,,M,0.09,N,0.16,K,A*3E
$GPGGA,075006.700,3606.7677,N,13940.2111,E,1,8,1.00,7.1,M,39.0,M,,*54
$GPGLL,3606.7677,N,13940.2111,E,075006.700,A,A*54
$GPGSA,A,3,31,27,16,08,09,18,26,04,,,,,1.95,1.00,1.68*09
$GLGSA,A,3,,,,,,,,,,,,,1.95,1.00,1.68*1D
$GPGSV,3,1,11,26,61,039,25,16,58,313,35,27,50,223,20,31,45,132,30*79
$GPGSV,3,2,11,04,34,285,24,18,31,078,26,08,18,224,31,09,13,315,22*79
$GPGSV,3,3,11,29,03,042,18,193,,,,43,,,30*71
$GLGSV,1,1,00*65
$GPRMC,075006.700,A,3606.7677,N,13940.2111,E,0.09,105.18,060122,,,A*60
$GPVTG,105.18,T,,M,0.09,N,0.16,K,A*3E
$GPGGA,075006.800,3606.7677,N,13940.2111,E,1,8,1.00,7.1,M,39.0,M,,*5B
$GPGLL,3606.7677,N,13940.2111,E,075006.800,A,A*5B
$GPGSA,A,3,31,27,16,08,09,18,26,04,,,,,1.95,1.00,1.68*09
$GLGSA,A,3,,,,,,,,,,,,,1.95,1.00,1.68*1D
$GPGSV,3,1,11,26,61,039,25,16,58,313,35,27,50,223,20,31,45,132,30*79
$GPGSV,3,2,11,04,34,285,24,18,31,078,26,08,18,224,31,09,13,315,22*79
$GPGSV,3,3,11,29,03,042,18,193,,,,43,,,30*71
$GLGSV,1,1,00*65
$GPRMC,075006.800,A,3606.7677,N,13940.2111,E,0.09,105.18,060122,,,A*6F
$GPVTG,105.18,T,,M,0.09,N,0.16,K,A*3E
$GPGGA,075006.900,3606.7677,N,13940.2111,E,1,8,1.00,7.1,M,39.0,M,,*5A
$GPGLL,3606.7677,N,13940.2111,E,075006.900,A,A*5A
$GPGSA,A,3,31,27,16,08,09,18,26,04,,,,,1.95,1.00,1.68*09
$GLGSA,A,3,,,,,,,,,,,,,1.95,1.00,1.68*1D
$GPGSV,3,1,11,26,61,039,25,16,58,313,35,27,50,223,20,31,45,132,30*79
$GPGSV,3,2,11,04,34,285,23,18,31,078,26,08,18,224,31,09,13,315,22*7E
$GPGSV,3,3,11,29,03,042,18,193,,,,43,,,30*71
$GLGSV,1,1,00*65
$GPRMC,075006.900,A,3606.7677,N,13940.2111,E,0.08,105.18,060122,,,A*6F
$GPVTG,105.18,T,,M,0.08,N,0.16,K,A*3F
$GPGGA,075007.000,3606.7677,N,13940.2111,E,1,8,1.00,7.1,M,39.0,M,,*52
$GPGLL,3606.7677,N,13940.2111,E,075007.000,A,A*52
$GPGSA,A,3,31,27,16,08,09,18,26,04,,,,,1.95,1.00,1.68*09
$GLGSA,A,3,,,,,,,,,,,,,1.95,1.00,1.68*1D
$GPGSV,3,1,11,26,61,039,25,16,58,313,35,27,50,223,20,31,45,132,30*79
$GPGSV,3,2,11,04,34,285,23,18,31,078,26,08,18,224,31,09,13,315,22*7E
$GPGSV,3,3,11,29,03,042,18,193,,,,43,,,30*71
$GLGSV,1,1,00*65
$GPRMC,075007.000,A,3606.7677,N,13940.2111,E,0.09,105.18,060122,,,A*66
$GPVTG,105.18,T,,M,0.09,N,0.16,K,A*3E
$GPGGA,075007.100,3606.7677,N,13940.2111,E,1,8,1.00,7.1,M,39.0,M,,*53
$GPGLL,3606.7677,N,13940.2111,E,075007.100,A,A*53
$GPGSA,A,3,31,27,16,08,09,18,26,04,,,,,1.95,1.00,1.68*09
$GLGSA,A,3,,,,,,,,,,,,,1.95,1.00,1.68*1D
$GPGSV,3,1,11,26,61,039,25,16,58,313,35,27,50,223,20,31,45,132,30*79
$GPGSV,3,2,11,04,34,285,23,18,31,078,26,08,18,224,31,09,13,315,22*7E
$GPGSV,3,3,11,29,03,042,18,193,,,,43,,,30*71
$GLGSV,1,1,00*65
$GPRMC,075007.100,A,3606.7677,N,13940.2111,E,0.08,105.18,060122,,,A*66
$GPVTG,105.18,T,,M,0.08,N,0.16,K,A*3F
$GPGGA,075007.200,3606.7677,N,13940.2111,E,1,8,1.00,7.1,M,39.0,M,,*50
$GPGLL,3606.7677,N,13940.2111,E,075007.200,A,A*50
$GPGSA,A,3,31,27,16,08,09,18,26,04,,,,,1.95,1.00,1.68*09
$GLGSA,A,3,,,,,,,,,,,,,1.95,1.00,1.68*1D
$GPGSV,3,1,11,26,61,039,25,16,58,313,35,27,50,223,20,31,45,132,30*79
$GPGSV,3,2,11,04,34,285,23,18,31,078,26,08,18,224,31,09,13,315,22*7E
$GPGSV,3,3,11,29,03,042,18,193,,,,43,,,30*71
$GLGSV,1,1,00*65
$GPRMC,075007.200,A,3606.7677,N,13940.2111,E,0.08,105.18,060122,,,A*65
$GPVTG,105.18,T,,M,0.08,N,0.16,K,A*3F
$GPGGA,075007.300,3606.7678,N,13940.2111,E,1,8,1.00,7.2,M,39.0,M,,*5D
$GPGLL,3606.7678,N,13940.2111,E,075007.300,A,A*5E
$GPGSA,A,3,31,27,16,08,09,18,26,04,,,,,1.95,1.00,1.68*09
$GLGSA,A,3,,,,,,,,,,,,,1.95,1.00,1.68*1D
$GPGSV,3,1,11,26,61,039,25,16,58,313,35,27,50,223,20,31,45,132,30*79
